,current_location,current_work,previous_work,latest_Education,major,search_school,current_company,previous_company,current_company_industry,previous_company_industry,current_NAICS,previous_NAICS,current_NAICS_title,current_avg_salary,previous_NAICS_title,latitude,longitude,state,county,city,fips
0,"Nashville, Tennessee, United States","Managing Director, Higher Education at FieldPros, Inc.",Account Manager at Maxim Staffing Solutions,1999–2003,,University of Notre Dame,"FieldPros, Inc.",Maxim Staffing Solutions,,,,,,,,36.162277,-86.774298,Tennessee,Davidson,Nashville-Davidson,47037
1,New York City  ,Vice President Technical Operations at Mnemo Therapeutics,"Executive Director, Cell Therapy Commercialization Portfolio Leader at Bristol Myers Squibb",1998–2005,Cell and Molecular Biology,University of Notre Dame,Mnemo Therapeutics,Bristol Myers Squibb,561110 Office management services,325412 Zinc oxide medicinal preparations manufacturing,56,31-33,Administrative and Support and Waste Management and Remediation Services,64366.438,Manufacturing,40.712728,-74.006015,New York,,New York,36061
2,"Brooklyn, New York, United States","Manager, Financial Systems at Glossier, Inc.",Business Intelligence & Technology Manager at Bastide,Université Paris Dauphine,Business Consulting in Organization and IT,University of Notre Dame,"Glossier, Inc.",Bastide,"325620 Towelettes, premoistened, manufacturing",446199 Sick room supply stores,31-33,44-45,Manufacturing,69174.562,Retail Trade,40.652601,-73.949721,New York,,,nan
3,"Marietta, Georgia, United States",Chief Accounting Officer (CAO) at Dematic,Senior Director - Corporate Finance at BrandSafway,University of Notre Dame,Accountancy,University of Notre Dame,Dematic,BrandSafway,541330 Traffic engineering consulting services,423810 Street sweeping and cleaning equipment merchant wholesalers,54,42,"Professional, Scientific, and Technical Services",77645.346,Wholesale Trade,33.952847,-84.549615,Georgia,Cobb,Marietta,13067
4,"Miami, Florida, United States",Chief Investor Relations Officer at SAP,Chief Financial Officer (CFO) of SAP North America at SAP,University of Paris I: Panthéon-Sorbonne,Economics & applied languages,University of Notre Dame,SAP,SAP,811212 Typewriter repair and maintenance services,811212 Typewriter repair and maintenance services,81,81,Other Services (except Public Administration),57824.628,Other Services (except Public Administration),25.774173,-80.19362,Florida,Miami-Dade,Miami,12086
5,"Jacksonville, Florida, United States",President and Founder | Exec Coach | Business Advisor at Perspective Always Matters  LLC,"EVP, Citizens Business Services | IT | Operations | Procurement | Risk | Security at Citizens Bank","Teachers College, Columbia University",Social and Organizational Psychology,University of Notre Dame,Perspective Always Matters  LLC,Citizens Bank,,"541511 Web (i.e., Internet) page design services, custom",,54,,,"Professional, Scientific, and Technical Services",30.332184,-81.655651,Florida,Duval,Jacksonville,12031
6,"Austin, Texas, United States",,"Acting VP, People Operations (Consultant) at Socure",University of Notre Dame,Marketing,University of Notre Dame,,Socure,,,,,,,,30.271129,-97.7437,Texas,Travis,Austin,48453
7,"San Francisco, California, United States",Senior Vice President at 160over90,"Vice President, Marketing Partnerships at Etihad",University of Notre Dame,Kinesiology,University of Notre Dame,160over90,Etihad,,481111 Scheduled air passenger transportation,,48-49,,,Transportation and Warehousing,37.779026,-122.419906,California,,San Francisco,06075
8,San Francisco Bay ,Vice President at TPG Global,"Global Head, Digital Platforms at Egon Zehnder",London Business School,Political Science & German,University of Notre Dame,TPG Global,Egon Zehnder,523910 Viatical settlement companies,541618 Utilities management consulting services,52,54,Finance and Insurance,80163.492,"Professional, Scientific, and Technical Services",37.714029,-122.307794,California,San Mateo,,06081
9, Paris  ,Directeur de Westfield Vélizy 2 at Unibail-Rodamco-Westfield,Directeur de Westfield Parly 2 at Unibail-Rodamco-Westfield,ESC Amiens,Commerce international,University of Notre Dame,Unibail-Rodamco-Westfield,Unibail-Rodamco-Westfield,237210 Subdividing real estate,237210 Subdividing real estate,23,23,Construction,64648.972,Construction,48.85889,2.320041,Île-de-France,Paris,,nan
10,"Chicago, Illinois, United States",Head of Equity Technology at Balyasny Asset Management L.P.,Managing Director at Citadel,Northwestern University - Kellogg School of Management,"Entrepreneurship/Entrepreneurial Studies, Finance",University of Notre Dame,Balyasny Asset Management L.P.,Citadel,,"523991 Trust companies, nondepository",,52,,,Finance and Insurance,41.875562,-87.624421,Illinois,Cook,Chicago,17031
11,"Austin, Texas, United States",Design Manager at Webflow,Staff Product Designer at Webflow,University of Notre Dame,"Psychology, Computer Applications",University of Notre Dame,Webflow,Webflow,518210 Web hosting,518210 Web hosting,51,51,Information,73855.595,Information,30.271129,-97.7437,Texas,Travis,Austin,48453
12,"Seattle, Washington, United States",Orthopedic Surgeon at Proliance Surgeons,Principle Investigator: Prospective Study to Assess Functional Performance of the Attune Knee System at Proliance Surgeons,+ 2 more,Medicine,University of Notre Dame,Proliance Surgeons,Proliance Surgeons,"621111 Walk-in physicians' offices (e.g., centers, clinics)","621111 Walk-in physicians' offices (e.g., centers, clinics)",62,62,Health Care and Social Assistance,76373.049,Health Care and Social Assistance,47.603832,-122.330062,Washington,King,Seattle,53033
13, Paris  ,Directeur Général  at HABITAT 77,Directeur Général at Pays de Meaux Habitat,Ecole Supérieure de Gestion (ESG) à Paris,,University of Notre Dame,HABITAT 77,Pays de Meaux Habitat,531190 Vacation and recreation land rental or leasing,531190 Vacation and recreation land rental or leasing,53,53,Real Estate and Rental and Leasing,60268.137,Real Estate and Rental and Leasing,48.85889,2.320041,Île-de-France,Paris,,nan
14,Raleigh-Durham-Chapel Hill ,"Founder and Principal Consultant | Strategy, Marketing, Product Management, Operations at UPtimizm","Sr. Product Manager | Marketing, Enablement, Training | Solutions, Outcome Selling, Customer Success at Cisco",University of Michigan - Stephen M. Ross School of Business,"Marketing, International Business",University of Notre Dame,UPtimizm,Cisco,,"541512 Systems integration design services, computer",,54,,,"Professional, Scientific, and Technical Services",35.855048,-78.84066,North Carolina,Wake,,37183
15,Brussels  ,Senior Marketing Manager Dott Belgium at Dott,Brand Manager Materne at Materne,Grenoble Ecole de Management - Grenoble Graduate School of Business,Marketing and Strategy,University of Notre Dame,Dott,Materne,551112 Public utility holding companies,311423 Vegetables dehydrating,55,31-33,Management of Companies and Enterprises,82055.219,Manufacturing,50.846557,4.351697,,Brussel-Hoofdstad -,Ville de Bruxelles - Stad Brussel,nan
16,"Tokyo, Japan",Professor at Aoyama Gakuin University,Associate Professor at Waseda University,Vanderbilt University,Management of Technology,University of Notre Dame,Aoyama Gakuin University,Waseda University,611310 Universities,"611110 Seminaries, below university grade",61,61,Educational Services,67390.465,Educational Services,35.682839,139.759455,,,東京都,nan
17,"Irvine, California, United States","Senior Manager, Data Analytics at Reyes Coca-Cola Bottling",Data Analytics Manager at Reyes Coca-Cola Bottling,University of Notre Dame,Applied Mathematics,University of Notre Dame,Reyes Coca-Cola Bottling,Reyes Coca-Cola Bottling,"312111 Water, flavored, manufacturing","312111 Water, flavored, manufacturing",31-33,31-33,Manufacturing,69174.562,Manufacturing,33.685697,-117.825982,California,Orange,Irvine,06059
18, Chicago ,"Senior Director, James B. Beam Distilling Co. (JBBDCo) at Beam Suntory","Director Global Marketing, JBBDCo & Jim BeamTM at Beam Suntory",Loyola Academy,Finance,University of Notre Dame,Beam Suntory,Beam Suntory,"312140 Spirits, distilled (except brandy), manufacturing","312140 Spirits, distilled (except brandy), manufacturing",31-33,31-33,Manufacturing,69174.562,Manufacturing,41.875562,-87.624421,Illinois,Cook,Chicago,17031
19,Netherlands,Senior Manager at Deloitte,VP Digital Transformation & Operations at Banco Pichincha Perú,IE Business School,,University of Notre Dame,Deloitte,Banco Pichincha Perú,541199 Trial consulting services,,54,,"Professional, Scientific, and Technical Services",77645.346,,52.15517,5.38721,,,,nan
20,"Franklin Lakes, New Jersey, United States",partner at McDermott Will and Emery,Chief Counsel to Senator Jeff Chiesa at United States Senate,1991–1993,Tax,University of Notre Dame,McDermott Will and Emery,United States Senate,541110 Tax law attorneys' private practices,"522130 Unions, credit",54,52,"Professional, Scientific, and Technical Services",77645.346,Finance and Insurance,41.016764,-74.205701,New Jersey,Bergen,Franklin Lakes,34003
21, Boston,Partner at Victorem Partners,"Vice President, Channel Sales at Cybereason",University of Notre Dame,Marketing,University of Notre Dame,Victorem Partners,Cybereason,,"541512 Systems integration design services, computer",,54,,,"Professional, Scientific, and Technical Services",42.360253,-71.058291,Massachusetts,Suffolk,Boston,25025
22,"Burbank, California, United States","Senior Vice President, Corporate FP&A at Scientific Games","Vice President, Corporate Financial Planning & Analysis at The Walt Disney Company",University of Virginia - Darden Graduate School of Business Administration,,University of Notre Dame,Scientific Games,The Walt Disney Company,"541512 Systems integration design services, computer",515210 Television subscription services,54,51,"Professional, Scientific, and Technical Services",77645.346,Information,34.181648,-118.325855,California,Los Angeles,Burbank,06037
23, Houston,"Senior Sales Manager, Oil & Gas/Chemical at GE Digital",Senior Enterprise Account Executive at Cority,University of Saskatchewan,"Marketing, Finance",University of Notre Dame,GE Digital,Cority,"511210 Utility software, computer, packaged","541511 Web (i.e., Internet) page design services, custom",51,54,Information,73855.595,"Professional, Scientific, and Technical Services",29.758938,-95.367697,Texas,Harris,Houston,48201
24,"Dublin, Ohio, United States",CEO at Dentsply Sirona,CEO Medical Segment at Cardinal Health,University of Notre Dame,Marketing,University of Notre Dame,Dentsply Sirona,Cardinal Health,339114 Ultrasonic dental equipment manufacturing,"339113 Whirlpool baths (i.e., hydrotherapy equipment) manufacturing",31-33,31-33,Manufacturing,69174.562,Manufacturing,40.099229,-83.114077,Ohio,Franklin,,39049
25,"Austin, Texas, United States",CEO at SecureLink,Chief Product Officer at Planview,University of Notre Dame,Electrical and Computer Engineering,University of Notre Dame,SecureLink,Planview,"541511 Web (i.e., Internet) page design services, custom",541613 Sales management consulting services,54,54,"Professional, Scientific, and Technical Services",77645.346,"Professional, Scientific, and Technical Services",30.271129,-97.7437,Texas,Travis,Austin,48453
26,"Charleston, South Carolina, United States",Chief Executive Officer at Hocking International Laboratories,"PE Advisor, Board of Directors, Business Mentor at Jasper Consulting & Advisory Services",Harvard University,Agribusiness Seminar - 2005,University of Notre Dame,Hocking International Laboratories,Jasper Consulting & Advisory Services,"423850 Water treatment equipment, municipal, merchant wholesalers",,42,,Wholesale Trade,68623.359,,32.787601,-79.940273,South Carolina,Charleston,Charleston,45019
27,"Denver, Colorado, United States",Chief Executive Officer at AspenRidge Recovery,"Vice President, Pediatric Mental Health Institute at Children's Hospital Colorado",Ball State University,"Business Administration, Management and Operations",University of Notre Dame,AspenRidge Recovery,Children's Hospital Colorado,"621498 Sleep disorder centers and clinics, outpatient",622110 Osteopathic hospitals,62,62,Health Care and Social Assistance,76373.049,Health Care and Social Assistance,39.739236,-104.984862,Colorado,,Denver,08031
28,"Montreal, Quebec, Canada",Chief Technology Officer at Rezilio Technologie,Executive Consultant at Various Companies,Université de Montréal / University of Montreal,Mathematics and Computer Science,University of Notre Dame,Rezilio Technologie,Various Companies,,,,,,,,45.503182,-73.569806,Québec,Agglomération de,Montréal,nan
29,Atlanta  ,Chief Executive Officer at Conavi Medical,"Strategic Advisor at Concinnity, LLC",University of Notre Dame,Chemical Engineering,University of Notre Dame,Conavi Medical,"Concinnity, LLC",,,,,,,,33.748992,-84.390264,Georgia,Fulton,Atlanta,13121
30,"Rennes, Brittany, France",CEO & Co-founder at Perpète,Senior Allocator - Wholesale South at Levi Strauss & Co.,2010–2011,Achats internationaux,University of Notre Dame,Perpète,Levi Strauss & Co.,,"315220 Work shirts, men's and boys', cut and sewn from purchased fabric (except apparel contractors)",,31-33,,,Manufacturing,48.111339,-1.68002,Bretagne,Ille-et-Vilaine,Rennes,nan
31,"Boston, Massachusetts, United States","CEO at Axis Technology, LLC",VP Data Masking at Delphix,University of Notre Dame,Computer Science and Psychology,University of Notre Dame,"Axis Technology, LLC",Delphix,541690 Security consulting services,"541511 Web (i.e., Internet) page design services, custom",54,54,"Professional, Scientific, and Technical Services",77645.346,"Professional, Scientific, and Technical Services",42.360253,-71.058291,Massachusetts,Suffolk,Boston,25025
32,"Chicago, Illinois, United States","SVP, Technology at Quantix","Senior Director, Enterprise Architecture at A&R Logistics,Inc.","University of Notre Dame, Notre Dame",Information Technology Management,University of Notre Dame,Quantix,"A&R Logistics,Inc.","493110 Warehousing and storage, general merchandise","484110 Trucking, general freight, local",48-49,48-49,Transportation and Warehousing,65503.789,Transportation and Warehousing,41.875562,-87.624421,Illinois,Cook,Chicago,17031
33,"Menlo Park, California, United States",Founder and CEO at Hexagon Bio,Director of Genomes to Natural Products Program at Stanford University School of Medicine,Stanford University School of Medicine,Biochemistry,University of Notre Dame,Hexagon Bio,Stanford University School of Medicine,,"611110 Seminaries, below university grade",,61,,,Educational Services,37.451967,-122.177993,California,San Mateo,,06081
34,"Orlando, Florida, United States","Director, Kaizen Promotion Office at Signature Flight Support",Director Enterprise Continuous Improvement - Business Transformation at Southwest Airlines,Cornell University,Hospitality Revenue Management; Pricing and Demand Strategies,University of Notre Dame,Signature Flight Support,Southwest Airlines,488119 Vacuuming of airport runways,481111 Scheduled air passenger transportation,48-49,48-49,Transportation and Warehousing,65503.789,Transportation and Warehousing,28.542111,-81.37903,Florida,Orange,Orlando,12095
35,"New York, New York, United States","Founder, CEO Bawdy Beauty at BAWDY",Sales Trading at UBS,University of Notre Dame,BA Italian,University of Notre Dame,BAWDY,UBS,,522110 State commercial banks,,52,,,Finance and Insurance,40.712728,-74.006015,New York,,New York,36061
36,"Nashville, Tennessee, United States",Founder and CEO at Cents.,Chief Financial Officer at Medalogix,University of Notre Dame,"Finance, General",University of Notre Dame,Cents.,Medalogix,"424990 Yarns, industrial, merchant wholesalers",,42,,Wholesale Trade,68623.359,,36.162277,-86.774298,Tennessee,Davidson,Nashville-Davidson,47037
37,"Leeds, England, United Kingdom",CEO and Founder at Savvy Marketing,Managing Director at The Marketing Store,Manchester Polytechnic,Retail Marketing,University of Notre Dame,Savvy Marketing,The Marketing Store,,541613 Sales management consulting services,,54,,,"Professional, Scientific, and Technical Services",53.797418,-1.543794,England,West,Leeds,nan
38,"Dallas, Texas, United States",Chief Marketing Officer at Tinder,"Chief Marketing Officer, Pizza Hut US at Yum! Brands",University of Notre Dame,Management Information Systems,University of Notre Dame,Tinder,Yum! Brands,423310 Wood siding merchant wholesalers,533110 Trademark licensing,42,53,Wholesale Trade,68623.359,Real Estate and Rental and Leasing,32.776272,-96.796856,Texas,Dallas,Dallas,48113
39,"Dallas, Texas, United States",President & CEO - CFM Materials at GE Aviation,General Manager - Time & Material Channel at GE Aviation,Thunderbird School of Global Management,Global Marketing,University of Notre Dame,GE Aviation,GE Aviation,"811310 Welding repair services (e.g., automotive, general)","811310 Welding repair services (e.g., automotive, general)",81,81,Other Services (except Public Administration),57824.628,Other Services (except Public Administration),32.776272,-96.796856,Texas,Dallas,Dallas,48113
40,"Columbus, Georgia, United States","Executive Director, Marketing at Synovus","Sr. Director, Marketing at Synovus",2004–2006,Marketing,University of Notre Dame,Synovus,Synovus,522110 State commercial banks,522110 State commercial banks,52,52,Finance and Insurance,80163.492,Finance and Insurance,32.461071,-84.988045,Georgia,Muscogee,Columbus,13215
41,"La Reina, Santiago  , Chile",Technology & business Manager at COPEC S.A.,Business Partner Supply Chain at COPEC S.A.,University of Notre Dame,Civil Engineer,University of Notre Dame,COPEC S.A.,COPEC S.A.,551112 Public utility holding companies,551112 Public utility holding companies,55,55,Management of Companies and Enterprises,82055.219,Management of Companies and Enterprises,-33.45572,-70.535359,Región Metropolitana de Santiago,Provincia de,,nan
42,"Waterloo, Iowa, United States",President and CEO at PDCM Insurance,Senior Account Executive at Arthur J. Gallagher,1992–1996,Marketing,University of Notre Dame,PDCM Insurance,Arthur J. Gallagher,,551112 Public utility holding companies,,55,,,Management of Companies and Enterprises,42.497969,-92.332964,Iowa,Black Hawk,Waterloo,19013
43,"Simpsonville, South Carolina, United States","SVP, Information Technology Solutions at The Cox Group (a division of Warehouse Services, Inc.)","VP, Digital Strategy at GSW Worldwide",The Ohio State University - The Max M. Fisher College of Business,Operations & Logistics/MIS,University of Notre Dame,"The Cox Group (a division of Warehouse Services, Inc.)",GSW Worldwide,,,,,,,,34.737064,-82.254283,South Carolina,Greenville,,45045
44,"Glenview, Illinois, United States",COO at EV Energy Group,Local Sales Manager at Clear Channel Outdoor,University of Notre Dame,Marketing,University of Notre Dame,EV Energy Group,Clear Channel Outdoor,,541850 Transit advertising services,,54,,,"Professional, Scientific, and Technical Services",42.086302,-87.826095,Illinois,Cook,,17031
45,"Dallas, Texas, United States","EVP, Strategy & Analytics at The Container Store","VP, Corporate Strategy & Business Development at JCPenney",Dartmouth College - The Tuck School of Business at Dartmouth,Finance and Computer Applications,University of Notre Dame,The Container Store,JCPenney,442299 Wood-burning stove stores,"531120 Theater, property operation, rental or leasing",44-45,53,Retail Trade,56013.266,Real Estate and Rental and Leasing,32.776272,-96.796856,Texas,Dallas,Dallas,48113
46,"Milwaukee, Wisconsin, United States",Chief Executive Officer at CDM Tool & Mfg.,Intern on behalf of the Cox MBA Private Equity & Venture Capital Fund at Dallas Venture Partners,Southern Methodist University - Cox School of Business,Finance,University of Notre Dame,CDM Tool & Mfg.,Dallas Venture Partners,333511 Molds for plastics and rubber working machinery manufacturing,"813211 Trusts, religious, awarding grants",31-33,81,Manufacturing,69174.562,Other Services (except Public Administration),43.034993,-87.922497,Wisconsin,Milwaukee,Milwaukee,55079
47, Sioux Falls ,President at First PREMIER Bank/PREMIER Bankcard,EVP Chief Operating Officer at Credit One Bank,1989–1992,Finance,University of Notre Dame,First PREMIER Bank/PREMIER Bankcard,Credit One Bank,,522110 State commercial banks,,52,,,Finance and Insurance,43.546059,-96.731393,South Dakota,Minnehaha,Sioux Falls,46099
48, Chicago ,"CFO at Wozniak Industries, Inc.",Vice President - Finance at Magid,1999–2001,Finance and Economics,University of Notre Dame,"Wozniak Industries, Inc.",Magid,"332111 Upset forgings made from purchased iron or steel, unfinished","315220 Work shirts, men's and boys', cut and sewn from purchased fabric (except apparel contractors)",31-33,31-33,Manufacturing,69174.562,Manufacturing,41.875562,-87.624421,Illinois,Cook,Chicago,17031
49,"Denver, Colorado, United States","Founder and CEO at Velocity Global, LLC",Client Development Executive at DLA Piper,University of Notre Dame,Accounting,University of Notre Dame,"Velocity Global, LLC",DLA Piper,561311 Theatrical employment agencies,541110 Tax law attorneys' private practices,56,54,Administrative and Support and Waste Management and Remediation Services,64366.438,"Professional, Scientific, and Technical Services",39.739236,-104.984862,Colorado,,Denver,08031
50,"Chicago, Illinois, United States","Managing Director, Midwest Technology Venture Banking at Signature Bank",Managing Director at Square 1 Bank,CFA Institute,Fundamental Investment Analysis,University of Notre Dame,Signature Bank,Square 1 Bank,522110 State commercial banks,,52,,Finance and Insurance,80163.492,,41.875562,-87.624421,Illinois,Cook,Chicago,17031
51, Indianapolis,CEO at C.H.I. Overhead Doors,President North America and European Commercial - Dental at Danaher,2003–2005,Accountancy,University of Notre Dame,C.H.I. Overhead Doors,Danaher,"238130 Wood frame component (e.g., truss) fabrication on site","334510 Ultrasonic scanning devices, medical, manufacturing",23,31-33,Construction,64648.972,Manufacturing,39.768333,-86.15835,Indiana,Marion,Indianapolis,18097
52,"Hingham, Massachusetts, United States",CEO at NG Advantage LLC,President / Chief Operating Officer at Biogenic Reagents / Michigan Renewable Carbon,Northeastern University,"Finance, General",University of Notre Dame,NG Advantage LLC,Biogenic Reagents / Michigan Renewable Carbon,221210 Natural gas marketers,,22,,Utilities,84207.831,,42.241767,-70.889768,Massachusetts,Plymouth,,25023
53,"St Louis, Missouri, United States",Chief Executive Officer at Energizer Holdings,President and Chief Operating Officer at Energizer Holdings,University of Notre Dame,,University of Notre Dame,Energizer Holdings,Energizer Holdings,335129 Underwater lighting fixtures manufacturing,335129 Underwater lighting fixtures manufacturing,31-33,31-33,Manufacturing,69174.562,Manufacturing,38.626426,-90.199585,Missouri,,Saint Louis,nan
54,"Sperryville, Virginia, United States",CEO at Cyren,CEO at Digital Reasoning,University of Notre Dame,Electrical Engineering,University of Notre Dame,Cyren,Digital Reasoning,518210 Web hosting,"423430 Software, computer, packaged, merchant wholesalers",51,42,Information,73855.595,Wholesale Trade,38.657065,-78.226112,Virginia,Rappahannock,,51157
55,"San Mateo, California, United States",Chief Operating Officer at Vaxcyte,"Vice President and  Business Unit Head, Vaccines (Global Health & Value) at Pfizer",2005,BioOrganic Chemistry,University of Notre Dame,Vaxcyte,Pfizer,325414 Virus vaccines manufacturing,"325411 Vitamins, uncompounded, manufacturing",31-33,31-33,Manufacturing,69174.562,Manufacturing,37.496904,-122.333057,California,San Mateo,,06081
56, Chicago ,"Manager, Consumer Insights & Demand Science at Conagra Brands","Strategist at Bluedog Design, LLC",Northwestern University - Kellogg School of Management,Marketing/Management,University of Notre Dame,Conagra Brands,"Bluedog Design, LLC",311999 Yeast manufacturing,,31-33,,Manufacturing,69174.562,,41.875562,-87.624421,Illinois,Cook,Chicago,17031
57,"Leander, Texas, United States",Co-Founder & CTO at HMBradley,Company Builder / Technologist at HVF Labs,University of Notre Dame,Management Information Systems,University of Notre Dame,HMBradley,HVF Labs,,,,,,,,30.560309,-97.855366,Texas,Williamson,Leander,48491
58,"Danville, California, United States","Director, Operations Engineering at Adobe","Sr. Director of Operations Engineering at TubeMogul, Inc. (Acquired by Adobe)",Notre Dame Des Aydes,Science,University of Notre Dame,Adobe,"TubeMogul, Inc. (Acquired by Adobe)","511210 Utility software, computer, packaged",,51,,Information,73855.595,,37.821593,-121.99996,California,Contra Costa,,06013
59,San Francisco Bay ,Co-Founder & COO at Passio Inc.,CEO & Board Member at ThinOPTICS,University of Notre Dame,Marketing,University of Notre Dame,Passio Inc.,ThinOPTICS,,,,,,,,37.714029,-122.307794,California,San Mateo,,06081
60,"Tampa, Florida, United States",Chief Operating Officer at AVI-SPL,"Chief Operating Officer, Global Workplace Solutions at CBRE",1992–1994,General Management,University of Notre Dame,AVI-SPL,CBRE,"334220 Video camera (except household-type, television broadcast) manufacturing",541611 Strategic planning consulting services,31-33,54,Manufacturing,69174.562,"Professional, Scientific, and Technical Services",27.94776,-82.458444,Florida,Hillsborough,Tampa,12057
61,"Washington,  of Columbia, United States",Chief Executive Officer at Credibility International,Vice President - Financial & Economic Consulting at Huron Consulting Group,1980–1984,Accountancy,University of Notre Dame,Credibility International,Huron Consulting Group,,"611710 Testing services, educational",,61,,,Educational Services,38.895037,-77.036543,District of Columbia,,Washington,nan
62,"Boca Raton, Florida, United States",President at Sparkspop,"Director of Marketing, Americas at Sensormatic",University of Notre Dame,Industrial Design,University of Notre Dame,Sparkspop,Sensormatic,,561621 Security system monitoring services,,56,,,Administrative and Support and Waste Management and Remediation Services,26.358688,-80.083098,Florida,Palm Beach,Boca Raton,12099
63,"Dallas, Texas, United States",Cofounder at Publir,Chief Technology Officer at RealClearPolitics,University of Notre Dame,Journalism,University of Notre Dame,Publir,RealClearPolitics,,"511110 Publishers, newspaper, combined with printing",,51,,,Information,32.776272,-96.796856,Texas,Dallas,Dallas,48113
64, Rennes  ,CEO - (co founder) at VODALYS,CEO (Co-founder) at VEO-LABS,Institut supérieur d'électronique et du numérique,Ingénierie des télécommunications,University of Notre Dame,VODALYS,VEO-LABS,,,,,,,,48.111339,-1.68002,Bretagne,Ille-et-Vilaine,Rennes,nan
65,"Cincinnati, Ohio, United States",President at The Metalworking Group,"Manager at MWG Holdings, Inc.",1980–1984,Mechanical Engineering,University of Notre Dame,The Metalworking Group,"MWG Holdings, Inc.",332710 Machine shops,,31-33,,Manufacturing,69174.562,,39.101454,-84.51246,Ohio,Hamilton,Cincinnati,39061
66,"Fairfax County, Virginia, United States","Chief Executive Officer at Guest Services, Inc.","President & COO at Guest Services, Inc.",University of Notre Dame,,University of Notre Dame,"Guest Services, Inc.","Guest Services, Inc.","484220 Trucking, specialized freight (except used goods), local","484220 Trucking, specialized freight (except used goods), local",48-49,48-49,Transportation and Warehousing,65503.789,Transportation and Warehousing,38.815636,-77.283685,Virginia,Fairfax,,51059
67,"Naperville, Illinois, United States",Executive Vice President & Chief Information Officer at Harbor Capital Advisors,Member - Leadership Council at DePaul University College of Computing and Digital Media,University of Michigan,Mechanical Engineering,University of Notre Dame,Harbor Capital Advisors,DePaul University College of Computing and Digital Media,523910 Viatical settlement companies,,52,,Finance and Insurance,80163.492,,41.77287,-88.147928,Illinois,DuPage,Naperville,17043
68,"Davenport, Iowa, United States",Chief Executive Officer at Per Mar Security Services,President of Electronic Security at Per Mar Security Services,University of Notre Dame,Economics,University of Notre Dame,Per Mar Security Services,Per Mar Security Services,,,,,,,,41.523644,-90.577637,Iowa,Scott,Davenport,19163
69, Chicago ,CEO at Stadium,President at 120 Sports,Harvard Law School,American Government and Politics (United States),University of Notre Dame,Stadium,120 Sports,452319,"541840 Television advertising representatives (i.e., independent of media owners)",44-45,54,Retail Trade,56013.266,"Professional, Scientific, and Technical Services",41.875562,-87.624421,Illinois,Cook,Chicago,17031
70,"San Antonio, Texas, United States","AVP, IT Operations Intelligence and Analytics at Capital Group | American Funds","AVP, IT Operations Command Center at Capital Group | American Funds",Western Governors University,Data Analytics,University of Notre Dame,Capital Group | American Funds,Capital Group | American Funds,,,,,,,,29.4246,-98.49514,Texas,Bexar,San Antonio,48029
71,"Dallas, Texas, United States","Director of Brand Marketing, Pizza Hut LAI at Yum! Brands",Director Of Marketing at Pollo Campero,Northwestern University - Kellogg School of Management,"Marketing, Graphic Design",University of Notre Dame,Yum! Brands,Pollo Campero,533110 Trademark licensing,533110 Trademark licensing,53,53,Real Estate and Rental and Leasing,60268.137,Real Estate and Rental and Leasing,32.776272,-96.796856,Texas,Dallas,Dallas,48113
72,Denver  ,"Director, Brand Strategy & Innovation at Egg Strategy","Sr Brand Strategist, Director at POWDR",University of Notre Dame,Marketing,University of Notre Dame,Egg Strategy,POWDR,541613 Sales management consulting services,"713920 Skiing facilities, downhill, without accommodations",54,71,"Professional, Scientific, and Technical Services",77645.346,"Arts, Entertainment, and Recreation",39.739236,-104.984862,Colorado,,Denver,08031
73,"Denver, Colorado, United States","Co-Founder at Employers Edge, LLC.","Business Development at Alliantgroup, LP",1986–1988,,University of Notre Dame,"Employers Edge, LLC.","Alliantgroup, LP",,541611 Strategic planning consulting services,,54,,,"Professional, Scientific, and Technical Services",39.739236,-104.984862,Colorado,,Denver,08031
74," Mahwah, New Jersey, United States","Senior Director, Data Analytics & Monitoring at Stryker","Director Compliance, Global Indirect Channels and Data Analytics Programs at Stryker",2001–2003,Finance,University of Notre Dame,Stryker,Stryker,"423450 X-ray machines and parts, medical and dental, merchant wholesalers","423450 X-ray machines and parts, medical and dental, merchant wholesalers",42,42,Wholesale Trade,68623.359,Wholesale Trade,41.088707,-74.143755,New Jersey,Bergen,,34003
75,"New York, New York, United States",Managing Partner and Co-Founder at Breakaway Communications,President at TSI Communications,Rollins College - Crummer Graduate School of Business,"Government, Economics",University of Notre Dame,Breakaway Communications,TSI Communications,,,,,,,,40.712728,-74.006015,New York,,New York,36061
76,"London, England, United Kingdom","Industry Director, Automotive UK at Teads",Marketing Director (Fiat & Abarth) at FCA Fiat Chrysler Automobiles,"EBS (European Business School) Paris, France",International Business,University of Notre Dame,Teads,Chrysler Automobiles,"541512 Systems integration design services, computer",441110 New car dealers,54,44-45,"Professional, Scientific, and Technical Services",77645.346,Retail Trade,51.507322,-0.127647,England,,London,nan
77,"Ellicott City, Maryland, United States",President at Allegis Group,Chief Information Officer at Allegis Group,University of Notre Dame,English/ Philosophy,University of Notre Dame,Allegis Group,Allegis Group,561320 Temporary staffing services,561320 Temporary staffing services,56,56,Administrative and Support and Waste Management and Remediation Services,64366.438,Administrative and Support and Waste Management and Remediation Services,39.275736,-76.831742,Maryland,Howard,,24027
78,New York City  ,Chief Human Resources Officer Executive Candidate - University of Pennsylvania at The Wharton School,Deputy Chief People Officer / Head of People at United States Golf Association (USGA),Stanford University,B.A.,University of Notre Dame,The Wharton School,United States Golf Association (USGA),"611110 Seminaries, below university grade",,61,,Educational Services,67390.465,,40.712728,-74.006015,New York,,New York,36061
79,"Paris, Île-de-France, France",Director of Supply Chain and Purchasing at ASWO,Global Commodity Director & Innovation business partner at Faurecia,Faurecia University,"Purchasing, Procurement/Acquisitions and Contracts Management",University of Notre Dame,ASWO,Faurecia,488510 Shipping agents (freight forwarding),"331210 Well casings (e.g., heavy riveted, lock joint, welded, wrought) made from purchased iron or steel",48-49,31-33,Transportation and Warehousing,65503.789,Manufacturing,48.85889,2.320041,Île-de-France,Paris,,nan
80,"Burlington, Vermont, United States","Managing Partner at Gallagher, Flynn & Company, LLP",Senior Auditor at Ernst & Young,University of Notre Dame,,University of Notre Dame,"Gallagher, Flynn & Company, LLP",Ernst & Young,"541211 Public accountants' (CPAs) private practices, certified",541219 Public accountants' (except CPAs) private practices,54,54,"Professional, Scientific, and Technical Services",77645.346,"Professional, Scientific, and Technical Services",44.47616,-73.212906,Vermont,Chittenden,Burlington,50007
81,San Francisco Bay ,"Senior Director, Business Innovation at Google","Senior Director of Product Marketing, Creative Cloud at Adobe",Stanford University Graduate School of Business,Finance & Spanish,University of Notre Dame,Google,Adobe,"541512 Systems integration design services, computer","511210 Utility software, computer, packaged",54,51,"Professional, Scientific, and Technical Services",77645.346,Information,37.714029,-122.307794,California,San Mateo,,06081
82,"San Diego, California, United States",President at HireTech,Operations Manager at Falcon Keyboard,1969–1973,Biology,University of Notre Dame,HireTech,Falcon Keyboard,,,,,,,,32.71742,-117.162773,California,San Diego,San Diego,06073
83,Los Angeles  ,Senior Director | Global Organizational Effectiveness & Future of Work at Twilio,Director | People and Organization Effectiveness - Americas at Infineon Technologies,University of Notre Dame,Economics,University of Notre Dame,Twilio,Infineon Technologies,"511210 Utility software, computer, packaged",541715,51,54,Information,73855.595,"Professional, Scientific, and Technical Services",34.053691,-118.242766,California,Los Angeles,Los Angeles,06037
84, Chicago ,Chief Financial Officer at Marathon Capital,Chief Financial Officer at Elevate K-12,University of Notre Dame,Accounting,University of Notre Dame,Marathon Capital,Elevate K-12,"551111 Holding companies, bank (except managing)",,55,,Management of Companies and Enterprises,82055.219,,41.875562,-87.624421,Illinois,Cook,Chicago,17031
85,"Leduc, Alberta, Canada",Vice President at GNB Global Inc.,VP Sales and Business Development  at GNB Global Inc.,Dr. Martin Leboldus High School,,University of Notre Dame,GNB Global Inc.,GNB Global Inc.,,,,,,,,53.260782,-113.551168,Alberta,,City of Leduc,nan
86,"Richmond, Texas, United States",Business Development Manager at American Robotech,Chief Executive Officer at R MAP Complete Beverage Consulting,University of Massachusetts at Amherst - Isenberg School of Management,Management,University of Notre Dame,American Robotech,R MAP Complete Beverage Consulting,,,,,,,,29.582181,-95.760783,Texas,Fort Bend,Richmond,48157
87,"Granite Bay, California, United States",Global Business Leader - WW Strategic Partners at Amazon Web Services (AWS),VP Worldwide Sales at Alcide.io,University of Notre Dame,Mechanical Engineering,University of Notre Dame,Amazon Web Services (AWS),Alcide.io,,"511210 Utility software, computer, packaged",,51,,,Information,38.763235,-121.163836,California,Placer,,06061
88,"Orange County, California, United States","CEO at Vaerus Technology, LLC",Vice President Global Channels and Alliances at Assima,University of Notre Dame,Mechanical Engineering,University of Notre Dame,"Vaerus Technology, LLC",Assima,,531110 Town house rental or leasing,,53,,,Real Estate and Rental and Leasing,33.750038,-117.870493,California,Orange,,06059
89,"Monterrey, Nuevo León, Mexico",Co-Founder and Managing Partner at ALZA Capital Partners,Member of the Board at Metalsa,Babson College - Franklin W. Olin Graduate School of Business,Management,University of Notre Dame,ALZA Capital Partners,Metalsa,,"336390 Wipers, windshield, automotive, truck, and bus, manufacturing",,31-33,,,Manufacturing,25.680202,-100.315258,Nuevo León,Monterrey,Monterrey,nan
90,"Chicago, Illinois, United States",President & Acting Provost / VPAA at American Islamic College,Interim Vice President for Academic Affairs/Provost at American Islamic College,University of Toronto,"Islamic Philsophy, Theology and Mysticism; Medieval Christian & Jewish Philosophy",University of Notre Dame,American Islamic College,American Islamic College,,,,,,,,41.875562,-87.624421,Illinois,Cook,Chicago,17031
91,"Montreal, Quebec, Canada",Vice President Of Global Services at EXFO,Services Business Unit Director at EXFO,McGill University,Business Administration post graduate degree,University of Notre Dame,EXFO,EXFO,333314 Theodolites manufacturing,333314 Theodolites manufacturing,31-33,31-33,Manufacturing,69174.562,Manufacturing,45.503182,-73.569806,Québec,Agglomération de,Montréal,nan
92,"Leeds, England, United Kingdom","Senior Buying Manager - Beer, Spirits & Tobacco at Morrisons","Senior Buying Manager - Bacon, Sausage & Cooked Meats at Morrisons",The University of Sheffield,Business Management,University of Notre Dame,Morrisons,Morrisons,"493110 Warehousing and storage, general merchandise","493110 Warehousing and storage, general merchandise",48-49,48-49,Transportation and Warehousing,65503.789,Transportation and Warehousing,53.797418,-1.543794,England,West,Leeds,nan
93, Kennewick ,"Senior Director - Global Environment, Health, Safety, and Sustainability at Lamb Weston","Global Director - Environmental, Health, and Safety at The Mosaic Company",University of North Carolina at Chapel Hill,Environmental Engineering,University of Notre Dame,Lamb Weston,The Mosaic Company,"311412 Whipped topping, frozen, manufacturing",325180 Zinc sulfide manufacturing,31-33,31-33,Manufacturing,69174.562,Manufacturing,46.208707,-119.119919,Washington,Benton,Kennewick,53005
94,"Austin, Texas, United States",Partner at Stream Realty Partners,Director at Newmark Knight Frank,The Johns Hopkins University,Political Science,University of Notre Dame,Stream Realty Partners,Newmark Knight Frank,"531210 Selling real estate for others (i.e., agents, brokers)",541611 Strategic planning consulting services,53,54,Real Estate and Rental and Leasing,60268.137,"Professional, Scientific, and Technical Services",30.271129,-97.7437,Texas,Travis,Austin,48453
95,"Irvine, California, United States",User Experience Designer at LinkedIn,Graphics Editor at The Observer - Notre Dame & Saint Mary's,University of Notre Dame,Design | Sociology | Digital Marketing,University of Notre Dame,LinkedIn,The Observer - Notre Dame & Saint Mary's,561499 Videoconferencing services,,56,,Administrative and Support and Waste Management and Remediation Services,64366.438,,33.685697,-117.825982,California,Orange,Irvine,06059
96,"Lille, Hauts-de-France, France",Coach Agile at EKITE,Product Owner at Groupe SII,"Université Charles de Gaulle-Sciences humaines, Lettres et Arts (Lille III)",Informatique,University of Notre Dame,EKITE,Groupe SII,,,,,,,,50.636565,3.063528,Hauts-de-France,Nord,Lille,nan
97,"Los Angeles, California, United States",Board Member at Propelled Brands,"Principal, Head of Global Origination at The Gores Group",University of Notre Dame,History,University of Notre Dame,Propelled Brands,The Gores Group,,443142 Video tape stores,,44-45,,,Retail Trade,34.053691,-118.242766,California,Los Angeles,Los Angeles,06037
98, Chicago ,MBA Candidate at Northwestern University - Kellogg School of Management,Advisor at Desktop Metal,Northwestern University - Kellogg School of Management,Industrial Design,University of Notre Dame,Northwestern University - Kellogg School of Management,Desktop Metal,,331110 Wrought iron or steel pipe and tubing made in iron and steel mills,,31-33,,,Manufacturing,41.875562,-87.624421,Illinois,Cook,Chicago,17031
99,"Needham, Massachusetts, United States",CEO at MomUp,VP of Sustainable Business Practices at TempAlert,Harvard University,Environmental Management,University of Notre Dame,MomUp,TempAlert,,"541511 Web (i.e., Internet) page design services, custom",,54,,,"Professional, Scientific, and Technical Services",42.280649,-71.236484,Massachusetts,Norfolk,,25021
100, Phoenix ,President at Elway Powersports,Principal at Maledon Advisory Services,University of Notre Dame,Finance and Accounting,University of Notre Dame,Elway Powersports,Maledon Advisory Services,,,,,,,,33.448437,-112.074142,Arizona,Maricopa,Phoenix,04013
101,"Los Angeles, California, United States",Co-Founder at Amuse,"General Manager, Los Angeles at Bird",Northwestern University - Kellogg School of Management,"Finance, Data Science, and Strategy (econ)",University of Notre Dame,Amuse,Bird,561499 Videoconferencing services,551112 Public utility holding companies,56,55,Administrative and Support and Waste Management and Remediation Services,64366.438,Management of Companies and Enterprises,34.053691,-118.242766,California,Los Angeles,Los Angeles,06037
102,"Greenwich, Connecticut, United States","President at Landmark Family Office, Landmark Angels and Landmark Capital",President & CEO at Landmark Capital Corporation,University of Notre Dame and University of Virginia La,,University of Notre Dame,"Landmark Family Office, Landmark Angels and Landmark Capital",Landmark Capital Corporation,,"611699 Yoga instruction, camps, or schools",,61,,,Educational Services,41.026486,-73.62846,Connecticut,Fairfield,,09001
103,"Arlington, Virginia, United States",Managing Director & Co-Founder at Dupont Circle Solutions,Vice President at EverFi,University of Notre Dame,Economics,University of Notre Dame,Dupont Circle Solutions,EverFi,,541611 Strategic planning consulting services,,54,,,"Professional, Scientific, and Technical Services",38.890396,-77.084158,Virginia,Arlington,Arlington,51013
104,"Pleasanton, California, United States",CEO at Zoomifier Corporation,Executive Director at SAS Institute,University of Notre Dame,Computer Engineering,University of Notre Dame,Zoomifier Corporation,SAS Institute,"511210 Utility software, computer, packaged","511210 Utility software, computer, packaged",51,51,Information,73855.595,Information,37.662431,-121.874679,California,Alameda,,06001
105,"Milwaukee, Wisconsin, United States","Sr. Director, Freight Management & Transport, NA at Molson Coors Beverage Company",Senior Manager Customer Service & Supply at MillerCoors,University of Notre Dame - Mendoza College of Business,,University of Notre Dame,Molson Coors Beverage Company,MillerCoors,312120 Stout brewing,312120 Stout brewing,31-33,31-33,Manufacturing,69174.562,Manufacturing,43.034993,-87.922497,Wisconsin,Milwaukee,Milwaukee,55079
106,"Sutton, England, United Kingdom",CEO at SuperWellness Ltd,Nutritional Therapist and Coach at SuperWellness Nutrition,"Birkbeck, University of London",Organizational Psychology,University of Notre Dame,SuperWellness Ltd,SuperWellness Nutrition,"445292 Nut (i.e., packaged) stores",,44-45,,Retail Trade,56013.266,,51.357464,-0.173627,England,,London,nan
107,"Lausanne, Vaud, Switzerland",Global Social Media Commerce Manager at Nestlé Nespresso SA,"EMEA Social Media Manager at Fossil Group, Inc.",NEOMA Business School,Marketing & Communication,University of Notre Dame,Nestlé Nespresso SA,"Fossil Group, Inc.",424490 Yeast merchant wholesalers,448150 Wig and hairpiece stores,42,44-45,Wholesale Trade,68623.359,Retail Trade,46.521827,6.632702,Vaud,District de,Lausanne,nan
108,"Grosse Pointe, Michigan, United States",Chief Executive Officer at Eisbrenner Inc.,Real Estate Investor at Eisbrenner Properties LLC,2005–2008,Finance and marketing,University of Notre Dame,Eisbrenner Inc.,Eisbrenner Properties LLC,,,,,,,,42.386148,-82.911859,Michigan,Wayne,,26163
109,"Chicago, Illinois, United States",Chief Operating Officer at Chicago Parking Meters,Executive Consultant (Operations Optimization/Transformation) at Waterline Renewal Technologies (WRT​),Northwestern University - Kellogg School of Management,"Management & Strategy, Finance, Marketing",University of Notre Dame,Chicago Parking Meters,Waterline Renewal Technologies (WRT​),,,,,,,,41.875562,-87.624421,Illinois,Cook,Chicago,17031
110,"Bryn Mawr, Pennsylvania, United States","Chief Financial Officer, EVP at Toll Brothers","President & Founder at MarCon Advisors, LLC",University of Notre Dame,Accountancy,University of Notre Dame,Toll Brothers,"MarCon Advisors, LLC",236117 Vacation housing construction for-sale builders,,23,,Construction,64648.972,,40.019834,-75.30463,Pennsylvania,Montgomery,Lower Merion Township,42091
111, Paris  ,Global Offer and strategic Marketing Director at Groupe Descamps,ACQUISITION IN MBI backed by a private investor at Fusion and acquisition association,KEDGE Business School,spécialisation marketing,University of Notre Dame,Groupe Descamps,Fusion and acquisition association,,,,,,,,48.85889,2.320041,Île-de-France,Paris,,nan
112,"Columbus, Ohio  ","Vice President, Operations   at STAR Dynamics",Quality Assurance Manager at STAR Dynamics,University of Notre Dame,Mechanical Engineering,University of Notre Dame,STAR Dynamics,STAR Dynamics,"334511 Wheel position indicators and transmitters, aircraft, manufacturing","334511 Wheel position indicators and transmitters, aircraft, manufacturing",31-33,31-33,Manufacturing,69174.562,Manufacturing,39.96226,-83.000706,Ohio,Franklin,Columbus,39049
113, Chicago ,"Director, Enterprise Continuous Improvement at Ulta Beauty","Senior Manager, Business Transformation Services, One Plan Change Office at Walgreens Boots Alliance",2017–Present,Executive Scholar,University of Notre Dame,Ulta Beauty,Walgreens Boots Alliance,812112 Unisex hair stylist shops,446110 Pharmacies,81,44-45,Other Services (except Public Administration),57824.628,Retail Trade,41.875562,-87.624421,Illinois,Cook,Chicago,17031
114,"Granger, Indiana, United States","Director | Founder at TransWorld Technologies US Inc.,",Strategic Enterprise Architect at Boeing,University of Notre Dame,Executive,University of Notre Dame,"TransWorld Technologies US Inc.,",Boeing,,"336413 Universal joints, aircraft, manufacturing",,31-33,,,Manufacturing,41.735476,-86.139708,Indiana,Saint Joseph,,nan
115, Chicago ,"Vice President Of Business Development at Risk Management Solutions of America, Inc. (RMSOA)","Healthcare Liability Broker - Life Sciences, Allied Health & Medical Facilities at Burns & Wilcox",2005–2010,"Management, Marketing",University of Notre Dame,"Risk Management Solutions of America, Inc. (RMSOA)",Burns & Wilcox,,524126 Workers' compensation insurance underwriting,,52,,,Finance and Insurance,41.875562,-87.624421,Illinois,Cook,Chicago,17031
116,"Paris, Île-de-France, France",Senior Director - Marketing and Communications - VinFast Europe at VinFast Europe,Chief Marketing Manager - All-electric ARIYA Coupé Crossover - Nissan Automotive Europe at Nissan Motor Corporation,Ecole supérieure des Sciences commerciales d'Angers,Automotive Distribution & Services,University of Notre Dame,VinFast Europe,Nissan Motor Corporation,,551112 Public utility holding companies,,55,,,Management of Companies and Enterprises,48.85889,2.320041,Île-de-France,Paris,,nan
117, Chicago ,President at Free Market Ventures,Trustee at Village of Winnetka,2000–2002,English,University of Notre Dame,Free Market Ventures,Village of Winnetka,,"921110 President's office, United States",,92,,,,41.875562,-87.624421,Illinois,Cook,Chicago,17031
118,"Hudson, Ohio, United States",Founder and CEO at Mobile Locker,"Managing Director, Chief Technology Officer at inVentiv Digital+Innovation",University of Notre Dame,Management Information Systems and Services,University of Notre Dame,Mobile Locker,inVentiv Digital+Innovation,,,,,,,,41.240056,-81.440667,Ohio,Summit,,39153
119,"New York, New York, United States",Co-Founder & President at Antenna,Co-founder & CEO at Antenna,University of Notre Dame,"Finance, Political Science",University of Notre Dame,Antenna,Antenna,999990,999990,99,99,"Federal, State, and Local Government, excluding state and local schools and hospitals and the U.S. Postal Service (OEWS Designation)",69671.738,"Federal, State, and Local Government, excluding state and local schools and hospitals and the U.S. Postal Service (OEWS Designation)",40.712728,-74.006015,New York,,New York,36061
120,"Comstock Park, Michigan, United States",CEO at EC Group International,President at Grand Rapids Tech List,University of Notre Dame,Mechanical Engineering,University of Notre Dame,EC Group International,Grand Rapids Tech List,,,,,,,,43.034287,-85.66553,Michigan,Kent,,26081
121, Paris  ,Global Marketing Integrated Communication Manager at Bitdefender,Consumer Brand Marketing Manager at Bitdefender,IÉSEG School of Management,"Business Administration and Management, General",University of Notre Dame,Bitdefender,Bitdefender,551112 Public utility holding companies,551112 Public utility holding companies,55,55,Management of Companies and Enterprises,82055.219,Management of Companies and Enterprises,48.85889,2.320041,Île-de-France,Paris,,nan
122,"San Francisco, California, United States",Co-Founder and CEO at AlphaFlow,Adventure Capitalist at Bucket List Sabbatical,2005–2007,,University of Notre Dame,AlphaFlow,Bucket List Sabbatical,522320 U.S. Central Credit Union,,52,,Finance and Insurance,80163.492,,37.779026,-122.419906,California,,San Francisco,06075
123,"Andover, Massachusetts, United States",Vice President of Sales and Marketing at LDI Medical,Director of Sales and Marketing at ALCOR Scientific,1989–1993,Marketing,University of Notre Dame,LDI Medical,ALCOR Scientific,,339112 Veterinarians' instruments and apparatus manufacturing,,31-33,,,Manufacturing,42.647144,-71.132291,Massachusetts,Essex,,25009
124,"Grand Rapids, Michigan, United States",Sr. Director NA Food Prep R& at Electrolux,"Director, Durables R&D at Amway",University of Notre Dame,Chemical Engineering,University of Notre Dame,Electrolux,Amway,"423620 Video cameras, household-type, merchant wholesalers",442299 Wood-burning stove stores,42,44-45,Wholesale Trade,68623.359,Retail Trade,42.96324,-85.667864,Michigan,Kent,Grand Rapids,26081
125,"Boston, Massachusetts, United States",Senior Vice President of Business Operations at Cogito Corp,"Vice President of People, Business Operations, and Legal at Cogito Corp",Harvard Law School,Law,University of Notre Dame,Cogito Corp,Cogito Corp,,,,,,,,42.360253,-71.058291,Massachusetts,Suffolk,Boston,25025
126, Chicago ,"Senior Advisor, Business Development at Trellis",Enterprise Sales Director at Numerator,University of Notre Dame,"English, Journalism",University of Notre Dame,Trellis,Numerator,551112 Public utility holding companies,,55,,Management of Companies and Enterprises,82055.219,,41.875562,-87.624421,Illinois,Cook,Chicago,17031
127, Chicago ,Director of Product Management at Chegg Inc.,Group Product Manager at Thinkful,2014–2015,"Technology, Innovation, and Education",University of Notre Dame,Chegg Inc.,Thinkful,451211 Religious book stores,611519 Truck driving schools,44-45,61,Retail Trade,56013.266,Educational Services,41.875562,-87.624421,Illinois,Cook,Chicago,17031
128, Phoenix ,"General Manager, Chrome River & Emburse Enterprise at Emburse",Chief Services Officer at Emburse,1992–1996,Management Infomation Systems,University of Notre Dame,Emburse,Emburse,522320 U.S. Central Credit Union,522320 U.S. Central Credit Union,52,52,Finance and Insurance,80163.492,Finance and Insurance,33.448437,-112.074142,Arizona,Maricopa,Phoenix,04013
129,"New York, New York, United States","Senior Director, Business Planning at Fresh",VP - Global Merchandising & Planning and Head of DTC Buying at The Collected Group,1988–1992,"Marketing, Advertising",University of Notre Dame,Fresh,The Collected Group,"311611 Veal carcasses, half carcasses, primal and sub-primal cuts, produced in slaughtering plants","541511 Web (i.e., Internet) page design services, custom",31-33,54,Manufacturing,69174.562,"Professional, Scientific, and Technical Services",40.712728,-74.006015,New York,,New York,36061
130, Chicago ,"Director at Cloud 9 Infosystems, Inc.",Senior Director at Excipio Consulting,University of Illinois at Urbana-Champaign,"Economics, Management",University of Notre Dame,"Cloud 9 Infosystems, Inc.",Excipio Consulting,"541512 Systems integration design services, computer",,54,,"Professional, Scientific, and Technical Services",77645.346,,41.875562,-87.624421,Illinois,Cook,Chicago,17031
131,"Winchester, California, United States","DC Senior Operations Manager at Vans, a VF Company",DC Operations Manager - 2nd Shift at Vans a Division of VF Outdoor,American Military University,Public Administration (Concentration in Human Resource Management),University of Notre Dame,"Vans, a VF Company",Vans a Division of VF Outdoor,,,,,,,,33.719382,-117.063285,California,Riverside,,06065
132,"New York, New York, United States","Director, Global Strategic Initiatives at Visa","Strategic Account Executive, Customer Success at CyberSource, a Visa solution at Visa",University of Notre Dame,Chemical Engineering,University of Notre Dame,Visa,Visa,522320 U.S. Central Credit Union,522320 U.S. Central Credit Union,52,52,Finance and Insurance,80163.492,Finance and Insurance,40.712728,-74.006015,New York,,New York,36061
133, Houston,"Vice President Talent Development at KBR, Inc.",CEO at Newhouse Consultants,University of Cambridge,Sustainability Studies,University of Notre Dame,"KBR, Inc.",Newhouse Consultants,541690 Security consulting services,,54,,"Professional, Scientific, and Technical Services",77645.346,,29.758938,-95.367697,Texas,Harris,Houston,48201
134,"Brooklyn, New York, United States",Senior Product Manager at Etsy,Product Manager at Etsy,University of Notre Dame,,University of Notre Dame,Etsy,Etsy,541830 Media buying services,541830 Media buying services,54,54,"Professional, Scientific, and Technical Services",77645.346,"Professional, Scientific, and Technical Services",40.652601,-73.949721,New York,,,nan
135,"Hingham, Massachusetts, United States","Global Director, Performance Running Footwear at ASICS Corporation","Director, Strategic Accounts at ASICS Corporation",University of Notre Dame,,University of Notre Dame,ASICS Corporation,ASICS Corporation,"315240 Windbreakers, women's, girls', and infants', cut and sewn from purchased fabric (except apparel contractors)","315240 Windbreakers, women's, girls', and infants', cut and sewn from purchased fabric (except apparel contractors)",31-33,31-33,Manufacturing,69174.562,Manufacturing,42.241767,-70.889768,Massachusetts,Plymouth,,25023
136, Chicago ,Partner at Latham & Watkins,Partner at Dechert LLP,2005–2008,Law,University of Notre Dame,Latham & Watkins,Dechert LLP,541110 Tax law attorneys' private practices,541110 Tax law attorneys' private practices,54,54,"Professional, Scientific, and Technical Services",77645.346,"Professional, Scientific, and Technical Services",41.875562,-87.624421,Illinois,Cook,Chicago,17031
137,"Malvern, Pennsylvania, United States",,VP of Security Strategies at IDC,University of Notre Dame,Finance,University of Notre Dame,,IDC,,237110 Water well pump and well piping system installation,,23,,,Construction,40.036202,-75.513896,Pennsylvania,Chester,,42029
138,"Philadelphia, Pennsylvania, United States","Director, Value Based Operations and Implementation  at Cigna",,Duke University - The Fuqua School of Business,Health Sector Management,University of Notre Dame,Cigna,,524114 Medical service plans without providing health care services,,52,,Finance and Insurance,80163.492,,39.952724,-75.163526,Pennsylvania,Philadelphia,Philadelphia,42101
139,"Farmington, Connecticut, United States","President (Hartford Office), Senior Benefits Consultant & Group Health Actuary at Lockton Companies",National Health & Welfare Practice Leader at USI Insurance Services,University of Notre Dame - Mathematics,,University of Notre Dame,Lockton Companies,USI Insurance Services,551112 Public utility holding companies,524210 Life insurance agencies,55,52,Management of Companies and Enterprises,82055.219,Finance and Insurance,41.719822,-72.832044,Connecticut,Hartford,,09003
140,United States,"Vice President, Labeling & Submissions Management at The Janssen Pharmaceutical Companies of Johnson & Johnson","Executive Director, Global Clinical Development IT at Merck",The University of Chicago Booth School of Business,"Strategic Management, Finance",University of Notre Dame,The Janssen Pharmaceutical Companies of Johnson & Johnson,Merck,,325412 Zinc oxide medicinal preparations manufacturing,,31-33,,,Manufacturing,39.78373,-100.445882,,,,nan
141,"Austin, Texas, United States",Director of Qualitative Research at Surprise.com,Research Director (icanmakeitbetter) at Material,Duke University,Political Science and Government,University of Notre Dame,Surprise.com,Material,,"423320 Tile, structural clay (except refractory), merchant wholesalers",,42,,,Wholesale Trade,30.271129,-97.7437,Texas,Travis,Austin,48453
142,"Boston, Massachusetts, United States","Biologist, Genetic Medicines at Eli Lilly and Company","Scientist, MIH Leadership Development Program at Eli Lilly and Company",University of Notre Dame,Applied and Computational Mathematics and Statistics- Data Science,University of Notre Dame,Eli Lilly and Company,Eli Lilly and Company,325412 Zinc oxide medicinal preparations manufacturing,325412 Zinc oxide medicinal preparations manufacturing,31-33,31-33,Manufacturing,69174.562,Manufacturing,42.360253,-71.058291,Massachusetts,Suffolk,Boston,25025
143,"Chicago, Illinois, United States",Senior Vice President at Cresa Chicago,Senior Vice President at Colliers International,1990–1994,Finance,University of Notre Dame,Cresa Chicago,Colliers International,,551112 Public utility holding companies,,55,,,Management of Companies and Enterprises,41.875562,-87.624421,Illinois,Cook,Chicago,17031
144,"New York, New York, United States",Executive Board Member at Ardian US - Deputy Head of Ardian Buyout at Ardian,Executive Board Member at Ardian US - Head of Americas Investments at Ardian Buyout at Ardian,ESCP Business School,Finance,University of Notre Dame,Ardian,Ardian,523120 Stock options brokerages,523120 Stock options brokerages,52,52,Finance and Insurance,80163.492,Finance and Insurance,40.712728,-74.006015,New York,,New York,36061
145, Paris  ,Managing Partner at G2C Corporate Finance,Owner & Skipper - Yacht Inspiration at Inspiration Sailing,1998–2000,Economics & Finance,University of Notre Dame,G2C Corporate Finance,Inspiration Sailing,,,,,,,,48.85889,2.320041,Île-de-France,Paris,,nan
146, Chicago ,Vice President Operations at Northwestern Medicine,,University of Notre Dame,,University of Notre Dame,Northwestern Medicine,,622110 Osteopathic hospitals,,62,,Health Care and Social Assistance,76373.049,,41.875562,-87.624421,Illinois,Cook,Chicago,17031
147,"Santa Monica, California, United States",Account Executive - Mid-market  at NetSuite,Account Executive - Emerging Markets at NetSuite,University of Notre Dame,Neuroscience and Behavior,University of Notre Dame,NetSuite,NetSuite,"511210 Utility software, computer, packaged","511210 Utility software, computer, packaged",51,51,Information,73855.595,Information,34.01947,-118.491227,California,Los Angeles,Santa Monica,06037
148,"Tampa, Florida, United States",Controller at Titan Electric Southeast,Vice President of Finance and Accounting at Franklin Street,New York University - Leonard N. Stern School of Business,"Finance, General",University of Notre Dame,Titan Electric Southeast,Franklin Street,238210 Tunnel lighting contractors,531110 Town house rental or leasing,23,53,Construction,64648.972,Real Estate and Rental and Leasing,27.94776,-82.458444,Florida,Hillsborough,Tampa,12057
149,"Houston, Texas, United States","Medical Director Neuromodulation, VP of Medical Affairs at Abbott","Medical Director, VP of Medical Affairs, Neuromodulation, Movement Disorders, and Pain at St. Jude Medical",Harvard Medical School,Anesthesiology Residency Program,University of Notre Dame,Abbott,St. Jude Medical,325412 Zinc oxide medicinal preparations manufacturing,"334510 Ultrasonic scanning devices, medical, manufacturing",31-33,31-33,Manufacturing,69174.562,Manufacturing,29.758938,-95.367697,Texas,Harris,Houston,48201
150, Chicago ,Director of Data Analytics and Pricing at Sloan,Principal at Liberty Advisor Group,Northwestern University,Predictive Analytics,University of Notre Dame,Sloan,Liberty Advisor Group,622310 Tuberculosis and other respiratory illness hospitals,541611 Strategic planning consulting services,62,54,Health Care and Social Assistance,76373.049,"Professional, Scientific, and Technical Services",41.875562,-87.624421,Illinois,Cook,Chicago,17031
151,"Washington,  of Columbia, United States",Senior Vice President at CURA Strategies,External Consultant at Edelman,+ 1 more,,University of Notre Dame,CURA Strategies,Edelman,,"541910 Sampling services, statistical",,54,,,"Professional, Scientific, and Technical Services",38.895037,-77.036543,District of Columbia,,Washington,nan
152,"Alfortville, Île-de-France, France",Directeur Général at Biostart.eu,"Fondateur, gérant at Biostart",Afpa + CNAM,Informatique et calculateur niveau 3 pour la construction et le genie civil,University of Notre Dame,Biostart.eu,Biostart,,541380 X-ray inspection services,,54,,,"Professional, Scientific, and Technical Services",48.805162,2.419711,Île-de-France,Val-de-Marne,,nan
153,"Guadalajara, Jalisco, Mexico","Director, Strategic Business Development at Kueski",CEO at VoxFeed,University of Notre Dame,Advanced Studies on Social- Economic and Political Sciences,University of Notre Dame,Kueski,VoxFeed,,,,,,,,20.672038,-103.338396,Jalisco,,Guadalajara,nan
154, Paris  ,Senior Product Manager at Wiremind,Product Manager at Cubyn,EDHEC Business School,Strategy and Organisation Consultancy,University of Notre Dame,Wiremind,Cubyn,,,,,,,,48.85889,2.320041,Île-de-France,Paris,,nan
155,"Fort Lauderdale, Florida, United States","Director, HR Solutions and Analytics at Chewy",Global HR Operations leader at Corteva Agriscience,University of Notre Dame,,University of Notre Dame,Chewy,Corteva Agriscience,"424990 Yarns, industrial, merchant wholesalers",541611 Strategic planning consulting services,42,54,Wholesale Trade,68623.359,"Professional, Scientific, and Technical Services",26.122308,-80.143379,Florida,Broward,Fort Lauderdale,12011
156,"Duluth, Minnesota, United States",Associate Vice Chancellor for Human Resources & Chief Human Resources Officer at University of Minnesota Duluth,Chief Human Resources Officer at Lone Star College,University of Notre Dame,Business Administration,University of Notre Dame,University of Minnesota Duluth,Lone Star College,611310 Universities,,61,,Educational Services,67390.465,,46.772932,-92.125122,Minnesota,Saint Louis,Duluth,nan
157,"Cincinnati, Ohio, United States",Business Development Director at BI WORLDWIDE,Market Sales Manager - Uniform Rental and Facility Services at Cintas,University of Notre Dame,Marketing,University of Notre Dame,BI WORLDWIDE,Cintas,541810 Advertising agency consulting services,423830 Woodworking machinery merchant wholesalers,54,42,"Professional, Scientific, and Technical Services",77645.346,Wholesale Trade,39.101454,-84.51246,Ohio,Hamilton,Cincinnati,39061
158,New York City  ,Regional Vice President Business Development at WINFertility,National Business Development Director at Caron Treatment Centers,University of Notre Dame,,University of Notre Dame,WINFertility,Caron Treatment Centers,"813920 Standards review committees, professional",,81,,Other Services (except Public Administration),57824.628,,40.712728,-74.006015,New York,,New York,36061
159,"Oakland, California, United States",Head of People Operations at Weights & Biases,Director of People Ops at Canvas Construction (We're Hiring!),University of Notre Dame,Psychology,University of Notre Dame,Weights & Biases,Canvas Construction (We're Hiring!),,,,,,,,37.804456,-122.271356,California,Alameda,Oakland,06001
160, Munich  ,Director Global Marketing Strategy & PR at OMMAX - Digital Solutions,Director Digital Strategy at OMMAX - Digital Solutions,INSEAD,Business Strategy and Financial Performance,University of Notre Dame,OMMAX - Digital Solutions,OMMAX - Digital Solutions,,,,,,,,48.137108,11.575382,Bayern,,München,nan
161, Angers ,Directeur Développement Franchise  at Groupe La Boucherie,Directeur Exploitation  at Brasserie Pub Murphy's,Notre Dame du Roc,,University of Notre Dame,Groupe La Boucherie,Brasserie Pub Murphy's,,,,,,,,47.473988,-0.551559,Pays de la Loire,Maine-et-Loire,Angers,nan
162,"Leeds, England, United Kingdom",Managing Director at Hampton People Ltd,Head of Sales & Training at Blue Octopus - intuitive applicant tracking systems and talent acquisition services,2001–2004,Business Studies,University of Notre Dame,Hampton People Ltd,Blue Octopus - intuitive applicant tracking systems and talent acquisition services,,,,,,,,53.797418,-1.543794,England,West,Leeds,nan
163,"Miami, Florida, United States",Principal at H.I.G. Capital,Vice President at Nautic Partners,2005–2007,Finance,University of Notre Dame,H.I.G. Capital,Nautic Partners,523120 Stock options brokerages,"811219 Weighing equipment (e.g., balance, scales) repair and maintenance services",52,81,Finance and Insurance,80163.492,Other Services (except Public Administration),25.774173,-80.19362,Florida,Miami-Dade,Miami,12086
164,"Amsterdam, North Holland, Netherlands",Director at CFO Enterprises Pty,Community Manager & Publisher Openbaar Bestuur at Kluwer,1994–1994,business economics,University of Notre Dame,CFO Enterprises Pty,Kluwer,,551112 Public utility holding companies,,55,,,Management of Companies and Enterprises,52.37276,4.893604,Noord-Holland,,Amsterdam,nan
165,"Los Angeles, California, United States",Principal at Leonard Green & Partners,Summer Analyst at Blackstone,University of Notre Dame,"Finance, History",University of Notre Dame,Leonard Green & Partners,Blackstone,523120 Stock options brokerages,551112 Public utility holding companies,52,55,Finance and Insurance,80163.492,Management of Companies and Enterprises,34.053691,-118.242766,California,Los Angeles,Los Angeles,06037
166,United Kingdom,Venture Partner at Kindred Capital VC,Principal at Singular,McGill University,Economics,University of Notre Dame,Kindred Capital VC,Singular,,999990,,99,,,"Federal, State, and Local Government, excluding state and local schools and hospitals and the U.S. Postal Service (OEWS Designation)",54.702354,-3.276575,,,,nan
167,Peru,Head of Organizational Design and People Analytics at Alicorp,Director Digital Strategy & Technology - Head of Talent & Transformation solutions LATAM at NTT DATA,Ecole supérieure de Commerce de Toulouse,"Business Administration and Management, General",University of Notre Dame,Alicorp,NTT DATA,"424410 Groceries, general-line, merchant wholesalers",541611 Strategic planning consulting services,42,54,Wholesale Trade,68623.359,"Professional, Scientific, and Technical Services",-6.86997,-75.045852,,,,nan
168,Los Angeles  ,Experiential Producer/Project Manager at Self Employed,Account Manager at Octagon,Penn State University,Marketing and Mangement,University of Notre Dame,Self Employed,Octagon,813910 Wholesalers' associations,551112 Public utility holding companies,81,55,Other Services (except Public Administration),57824.628,Management of Companies and Enterprises,34.053691,-118.242766,California,Los Angeles,Los Angeles,06037
169, Chicago ,Product Manager at Relativity,Product Manager at Telnyx,Stanford University,Human Centered Design in Product Development,University of Notre Dame,Relativity,Telnyx,561990 Trading stamp redemption services,517311,56,51,Administrative and Support and Waste Management and Remediation Services,64366.438,Information,41.875562,-87.624421,Illinois,Cook,Chicago,17031
170, Chicago ,Senior Vice President at Signature Bank,Senior Vice President at Fifth Third Bank,University of Notre Dame,Finance,University of Notre Dame,Signature Bank,Fifth Third Bank,522110 State commercial banks,522110 State commercial banks,52,52,Finance and Insurance,80163.492,Finance and Insurance,41.875562,-87.624421,Illinois,Cook,Chicago,17031
171, Angers ,Chef d'entreprise at WEFIT.CLUB,Chef d’entreprise at Salles de sport Angers,Ecole Supérieure de Commerce Et de Management - ESCEM,,University of Notre Dame,WEFIT.CLUB,Salles de sport Angers,,,,,,,,47.473988,-0.551559,Pays de la Loire,Maine-et-Loire,Angers,nan
172,"Paris, Île-de-France, France",Marketing manager France - Belgique at Escape Hunt France,Digital Marketing Project manager at Gefco,INSEEC Business School,Marketing & Digital,University of Notre Dame,Escape Hunt France,Gefco,,"484110 Trucking, general freight, local",,48-49,,,Transportation and Warehousing,48.85889,2.320041,Île-de-France,Paris,,nan
173,"Chicago, Illinois, United States","VP, Experience Design at Kin + Carta","VP, Creative Director at Fusion92",University of Notre Dame,Graphic Design,University of Notre Dame,Kin + Carta,Fusion92,323111 Yearbooks commercial printing (except screen) without publishing,541613 Sales management consulting services,31-33,54,Manufacturing,69174.562,"Professional, Scientific, and Technical Services",41.875562,-87.624421,Illinois,Cook,Chicago,17031
174,"Columbus, Ohio, United States",President & CEO at The Kingswood Company,Treasurer & National Board Member at Women's Jewelry Association,University of Notre Dame,Finance,University of Notre Dame,The Kingswood Company,Women's Jewelry Association,,,,,,,,39.96226,-83.000706,Ohio,Franklin,Columbus,39049
175, Chicago ,Managing Director at Sutker Moran,"Chief Financial Officer at TruQua, an IBM Company",Northern Illinois University,Taxation,University of Notre Dame,Sutker Moran,"TruQua, an IBM Company",,,,,,,,41.875562,-87.624421,Illinois,Cook,Chicago,17031
176,"Laval, Quebec, Canada",President at Société de Développement URBANIA 2003 inc,,Notre-Dame,,University of Notre Dame,Société de Développement URBANIA 2003 inc,,,,,,,,,45.605589,-73.734417,Québec,Laval,,nan
177,"Washington,  of Columbia, United States",CEO and Founder at Larabee,Voice Over Artist at SpokenLayer,New York University,Food Studies,University of Notre Dame,Larabee,SpokenLayer,"621111 Walk-in physicians' offices (e.g., centers, clinics)",,62,,Health Care and Social Assistance,76373.049,,38.895037,-77.036543,District of Columbia,,Washington,nan
178,"Charlotte, North Carolina, United States","Senior Vice President, Commercial Operations at Nuance Communications",Global Sales Operations Leader at Verizon Connect,Northwestern University - Kellogg School of Management,"Marketing, Management Strategy, Finance",University of Notre Dame,Nuance Communications,Verizon Connect,"511210 Utility software, computer, packaged",517911 Wireless telecommunication resellers (except satellite),51,51,Information,73855.595,Information,35.227209,-80.843083,North Carolina,Mecklenburg,Charlotte,37119
179,"Phoenix, Arizona, United States","Senior Vice President - Marketing, Key Accounts, and ESG at WillScot",Chief Strategy Officer and Head of Business Development at Savills North America,Harvard Business School,General Management,University of Notre Dame,WillScot,Savills North America,"531130 Warehousing, self storage",,53,,Real Estate and Rental and Leasing,60268.137,,33.448437,-112.074142,Arizona,Maricopa,Phoenix,04013
180,New York City  ,"Director, Business Development  at True Office Learning",Business Development Executive at SAI Global,Seton Hall University School of Law,,University of Notre Dame,True Office Learning,SAI Global,"511210 Utility software, computer, packaged",999990,51,99,Information,73855.595,"Federal, State, and Local Government, excluding state and local schools and hospitals and the U.S. Postal Service (OEWS Designation)",40.712728,-74.006015,New York,,New York,36061
181,New York City  ,Head of Marketing at Re-Solved,Director of Marketing at New Jersey Society of CPAs,University of Notre Dame,American Studies (Journalism/Communications) & Psychology,University of Notre Dame,Re-Solved,New Jersey Society of CPAs,,,,,,,,40.712728,-74.006015,New York,,New York,36061
182,"South Bend, Indiana, United States","Owner at A&J Consulting, LLC",Master of Science in Management Association President  at University of Notre Dame - Mendoza College of Business,University of Notre Dame - Mendoza College of Business,Management,University of Notre Dame,"A&J Consulting, LLC",University of Notre Dame - Mendoza College of Business,541810 Advertising agency consulting services,,54,,"Professional, Scientific, and Technical Services",77645.346,,41.683381,-86.250007,Indiana,Saint Joseph,South Bend,nan
183,Dallas-Fort Worth ,CFO at Everest Rehabilitation Hospitals,"SVP, Finance & Development at Cobalt Medical Development/Cobalt Rehabilitation",University of Notre Dame,Corp. Finance & Investments,University of Notre Dame,Everest Rehabilitation Hospitals,Cobalt Medical Development/Cobalt Rehabilitation,"624190 Welfare service centers, multi-program",,62,,Health Care and Social Assistance,76373.049,,32.745316,-97.327831,Texas,Tarrant,Fort Worth,48439
184,New York City  ,Executive Vice President & Chief Financial Officer at Union Savings Bank - CT,SVP & CFO at Legacy Banks,University of Notre Dame,Accounting and Finance,University of Notre Dame,Union Savings Bank - CT,Legacy Banks,,,,,,,,40.712728,-74.006015,New York,,New York,36061
185, Chicago ,Head of Security Technology Engineering at Zurich Insurance Group,Manager at Accenture,University of Notre Dame,,University of Notre Dame,Zurich Insurance Group,Accenture,522298 Short-term inventory credit lending,541330 Traffic engineering consulting services,52,54,Finance and Insurance,80163.492,"Professional, Scientific, and Technical Services",41.875562,-87.624421,Illinois,Cook,Chicago,17031
186,"San Diego, California, United States",Head of Global Insights - PS Wide at HP,Global Head of Print Marketing Insights at HP,1993–1997,Marketing and Graphic Design,University of Notre Dame,HP,HP,"334118 Terminals, computer, manufacturing","334118 Terminals, computer, manufacturing",31-33,31-33,Manufacturing,69174.562,Manufacturing,32.71742,-117.162773,California,San Diego,San Diego,06073
187,Salt Lake City  ,Chief Financial Officer (CFO) at Priority Dispatch,Finance and Operations (Interim/Acting CFO) at Consulting,2003–2006,"Finance, Marketing",University of Notre Dame,Priority Dispatch,Consulting,"484110 Trucking, general freight, local",541618 Utilities management consulting services,48-49,54,Transportation and Warehousing,65503.789,"Professional, Scientific, and Technical Services",40.75962,-111.886798,Utah,Salt Lake,Salt Lake City,49035
188, Paris  ,Digital Project Manager at BNP Paribas,Web & Mobile Product Owner / RETAIL at Adrexo,The University of Birmingham,"E-marketing, advertising, international marketing, branding...",University of Notre Dame,BNP Paribas,Adrexo,"524113 Savings bank life insurance carriers, direct",541810 Advertising agency consulting services,52,54,Finance and Insurance,80163.492,"Professional, Scientific, and Technical Services",48.85889,2.320041,Île-de-France,Paris,,nan
189,"New York, New York, United States",Chief Financial Officer at MarketAxess,Head of Accounting and Finance at MarketAxess,1994–1997,Accounting,University of Notre Dame,MarketAxess,MarketAxess,523120 Stock options brokerages,523120 Stock options brokerages,52,52,Finance and Insurance,80163.492,Finance and Insurance,40.712728,-74.006015,New York,,New York,36061
190,"Champaign, Illinois, United States",Senior Director of Information Technology Partners at Gies College of Business - University of Illinois Urbana-Champaign,Director of Business Information Technology Services at Gies College of Business - University of Illinois Urbana-Champaign,University of Illinois at Urbana-Champaign,Government and International Studies,University of Notre Dame,Gies College of Business - University of Illinois Urbana-Champaign,Gies College of Business - University of Illinois Urbana-Champaign,,,,,,,,40.116484,-88.243093,Illinois,Champaign,Champaign,17019
191,"Charlotte, North Carolina, United States",Director at London Stock Exchange Group (LSEG),Senior Principal at Sagence,1994–1998,Mgt Information Systems,University of Notre Dame,London Stock Exchange Group (LSEG),Sagence,,541611 Strategic planning consulting services,,54,,,"Professional, Scientific, and Technical Services",35.227209,-80.843083,North Carolina,Mecklenburg,Charlotte,37119
192,"Philadelphia, Pennsylvania, United States","Associate Vice President, Direct Response Business Operations  at Schultz & Williams","Senior Director, Direct Response Planning & Development at Schultz & Williams",1997–2001,,University of Notre Dame,Schultz & Williams,Schultz & Williams,541611 Strategic planning consulting services,541611 Strategic planning consulting services,54,54,"Professional, Scientific, and Technical Services",77645.346,"Professional, Scientific, and Technical Services",39.952724,-75.163526,Pennsylvania,Philadelphia,Philadelphia,42101
193,Washington DC-Baltimore ,President at McCabe Message Partners,Partner at GYMR Public Relations,University of Notre Dame,English,University of Notre Dame,McCabe Message Partners,GYMR Public Relations,,,,,,,,38.918116,-76.942107,District of Columbia,Prince George's,Washington,nan
194, Sydney ,,Co-Founder and Head of Operations at MILKRUN,University of Notre Dame,Finance,University of Notre Dame,,MILKRUN,,453998 Trophy (including awards and plaques) shops,,44-45,,,Retail Trade,-33.854816,151.216454,New South Wales,,Sydney,nan
195, Chicago ,Director at Clearsulting,Business Development at Preferral,+ 1 more,,University of Notre Dame,Clearsulting,Preferral,541611 Strategic planning consulting services,,54,,"Professional, Scientific, and Technical Services",77645.346,,41.875562,-87.624421,Illinois,Cook,Chicago,17031
196,United States,Chief Financial Officer at Healthcare,Chief Financial Officer at Healthcare (Hospital),Yale University,,University of Notre Dame,Healthcare,Healthcare (Hospital),622110 Osteopathic hospitals,424210 Vitamins merchant wholesalers,62,42,Health Care and Social Assistance,76373.049,Wholesale Trade,39.78373,-100.445882,,,,nan
197,San Francisco Bay ,Vice President of Marketing at Liquibase,Vice President of Marketing at TIBCO,University of Notre Dame,Aerospace Engineering,University of Notre Dame,Liquibase,TIBCO,"541511 Web (i.e., Internet) page design services, custom","541512 Systems integration design services, computer",54,54,"Professional, Scientific, and Technical Services",77645.346,"Professional, Scientific, and Technical Services",37.714029,-122.307794,California,San Mateo,,06081
198,Los Angeles  ,President and COO at National Veterinary Associates,Chief Operating Officer at National Veterinary Associates,University of Pennsylvania - The Wharton School,Finance,University of Notre Dame,National Veterinary Associates,National Veterinary Associates,541940 Veterinary testing laboratories,541940 Veterinary testing laboratories,54,54,"Professional, Scientific, and Technical Services",77645.346,"Professional, Scientific, and Technical Services",34.053691,-118.242766,California,Los Angeles,Los Angeles,06037
199,"South Bend, Indiana, United States","CEO, Co-founder at Earlybird",Director of Project Management at Spartz Media,2005–2009,Information Technology Management,University of Notre Dame,Earlybird,Spartz Media,112390 Ratite production,,11,,"Agriculture, Forestry, Fishing and Hunting",47880.873,,41.683381,-86.250007,Indiana,Saint Joseph,South Bend,nan
200, Cleveland,"Director, Digital at Progressive Insurance","Director, Digital Operations at Nordstrom",Northwestern University - Kellogg School of Management,"Finance, Political Science",University of Notre Dame,Progressive Insurance,Nordstrom,524126 Workers' compensation insurance underwriting,454110,52,44-45,Finance and Insurance,80163.492,Retail Trade,41.499656,-81.693681,Ohio,Cuyahoga,Cleveland,39035
201,United States,CEO at Quaker Houghton,CEO elect at Quaker Houghton,University of Notre Dame,,University of Notre Dame,Quaker Houghton,Quaker Houghton,"325199 Wood alcohol, synthetic, manufacturing","325199 Wood alcohol, synthetic, manufacturing",31-33,31-33,Manufacturing,69174.562,Manufacturing,39.78373,-100.445882,,,,nan
202,"San Francisco, California, United States",Chief Operating Officer at Stanza,"Vice President, CSG M&A at Salesforce",1991–1993,Management of Technology,University of Notre Dame,Stanza,Salesforce,999990,"541511 Web (i.e., Internet) page design services, custom",99,54,"Federal, State, and Local Government, excluding state and local schools and hospitals and the U.S. Postal Service (OEWS Designation)",69671.738,"Professional, Scientific, and Technical Services",37.779026,-122.419906,California,,San Francisco,06075
203,"Rochester, Michigan, United States","Director, IT Architecture at AAM - American Axle & Manufacturing","Senior Manager, IT Architecture and Engineering at AAM - American Axle & Manufacturing",University of Notre Dame,,University of Notre Dame,AAM - American Axle & Manufacturing,AAM - American Axle & Manufacturing,,,,,,,,42.680588,-83.133821,Michigan,Oakland,,26125
204, Milwaukee,Chief Executive Officer at Avidity Science,"Director, Global Sales & Channel at Corning Life Sciences",1998–1999,Marketing,University of Notre Dame,Avidity Science,Corning Life Sciences,"333318 Word processing equipment, dedicated, manufacturing",337127 Work benches manufacturing,31-33,31-33,Manufacturing,69174.562,Manufacturing,43.034993,-87.922497,Wisconsin,Milwaukee,Milwaukee,55079
205,"Devon, Pennsylvania, United States",Managing Director - Technology Solutions at SEI,Director - Technology Solutions at SEI,University of Notre Dame,,University of Notre Dame,SEI,SEI,541611 Strategic planning consulting services,541611 Strategic planning consulting services,54,54,"Professional, Scientific, and Technical Services",77645.346,"Professional, Scientific, and Technical Services",40.049275,-75.429082,Pennsylvania,Chester,Easttown Township,42029
206,Buffalo-Niagara Falls ,Chief Operating Officer at PCI,Business Operations at PCI,University of Notre Dame - Mendoza College of Business,Marketing and Information Systems,University of Notre Dame,PCI,PCI,213113 Tunneling services for coal mining on a contract basis,213113 Tunneling services for coal mining on a contract basis,21,21,"Mining, Quarrying, and Oil and Gas Extraction",69910.58,"Mining, Quarrying, and Oil and Gas Extraction",42.955667,-78.823187,New York,Erie,Buffalo,36029
207, Boston,Debt Buster - Technology to dynamically manage cash flow to destroy debt & accelerate wealth growth at Boosted Profits,Joint Ventures | Strategic Partnerships | Trusted Business Connector | Author | LinkedIn Expert |  at The JV Doctor,University of Notre Dame,Finance,University of Notre Dame,Boosted Profits,The JV Doctor,,,,,,,,42.360253,-71.058291,Massachusetts,Suffolk,Boston,25025
208, Lyon ,COO at AUM Biosync,Scrum Master / Software Engineering Manager at GiSmartware,Centre d'Etudes supérieures industrielles,Network and System Administration,University of Notre Dame,AUM Biosync,GiSmartware,,,,,,,,45.757814,4.832011,Auvergne-Rhône-Alpes,Métropole de,Lyon,nan
209,"Melbourne, Florida, United States",Vice President and Chief Technology Officer at L3Harris Technologies,Vice President and Chief Technology Office (CTO) for Harris Corporation at Harris Corporation,+ 2 more,Mathematics,University of Notre Dame,L3Harris Technologies,Harris Corporation,334413 Wafers (semiconductor devices) manufacturing,"611110 Seminaries, below university grade",31-33,61,Manufacturing,69174.562,Educational Services,28.106471,-80.637151,Florida,Brevard,Melbourne,12009
210,"Albany, New York, United States","President and CEO at New York State Industries for the Disabled, Inc. (NYSID)",Executive Director Northeast Region at Motorola Solutions,University of Notre Dame,English Language and Literature/Letters,University of Notre Dame,"New York State Industries for the Disabled, Inc. (NYSID)",Motorola Solutions,,"334210 Wide area network communications equipment (e.g., bridges, gateways, routers) manufacturing",,31-33,,,Manufacturing,42.651167,-73.754968,New York,Albany,Albany,36001
211, Chicago ,Co-Founder and Co-CEO at Drop With Us Inc.,Software Engineering Consultant at West Monroe Partners,University of Notre Dame,,University of Notre Dame,Drop With Us Inc.,West Monroe Partners,,541611 Strategic planning consulting services,,54,,,"Professional, Scientific, and Technical Services",41.875562,-87.624421,Illinois,Cook,Chicago,17031
212, Chicago ,Chief Procurement Officer at MCC Label,"Senior Vice President, Procurement at Fort Dearborn Company",The University of Chicago - Booth School of Business,,University of Notre Dame,MCC Label,Fort Dearborn Company,541618 Utilities management consulting services,323111 Yearbooks commercial printing (except screen) without publishing,54,31-33,"Professional, Scientific, and Technical Services",77645.346,Manufacturing,41.875562,-87.624421,Illinois,Cook,Chicago,17031
213,"Rotherham, England, United Kingdom",IT Manager at Countrywide Healthcare,Head Of Information Technology at Sheffield Wednesday Football Club,NCFE,"Business Administration and Management, General",University of Notre Dame,Countrywide Healthcare,Sheffield Wednesday Football Club,424210 Vitamins merchant wholesalers,"531120 Theater, property operation, rental or leasing",42,53,Wholesale Trade,68623.359,Real Estate and Rental and Leasing,53.431042,-1.355187,England,,Rotherham,nan
214,"New York, New York, United States",Chief Global Data Officer at Freshfields Bruckhaus Deringer,Consultant at A Magic Circle Law Firm,University of Notre Dame,Communications & Theatre,University of Notre Dame,Freshfields Bruckhaus Deringer,A Magic Circle Law Firm,541110 Tax law attorneys' private practices,,54,,"Professional, Scientific, and Technical Services",77645.346,,40.712728,-74.006015,New York,,New York,36061
215,"San Jose, California, United States",Head of People Operations and Technology at Square,Head of People Systems and Operations at Guidewire Software,University of Notre Dame,Management Information Systems,University of Notre Dame,Square,Guidewire Software,"525910 Mutual funds, open-ended","511210 Utility software, computer, packaged",52,51,Finance and Insurance,80163.492,Information,37.33619,-121.890583,California,Santa Clara,San Jose,06085
216,"Paris, Île-de-France, France",Chief Technology Officer at cryptio,Co-founder at PoC,EPITECH - European Institute of Technology,Computer Science,University of Notre Dame,cryptio,PoC,,424490 Yeast merchant wholesalers,,42,,,Wholesale Trade,48.85889,2.320041,Île-de-France,Paris,,nan
217,"Beverly Hills, California, United States",CEO at KO Creative,,Education (same page),,University of Notre Dame,KO Creative,,,,,,,,,34.06965,-118.396306,California,Los Angeles,,06037
218,"London, England, United Kingdom","Head of Marketing EU Private Brands, Hardlines at Amazon",Senior Global Brand Director Dove Skincare at Unilever,1998–2003,Economics,University of Notre Dame,Amazon,Unilever,454110,561499 Videoconferencing services,44-45,56,Retail Trade,56013.266,Administrative and Support and Waste Management and Remediation Services,51.507322,-0.127647,England,,London,nan
219,,,Administrative Resident at HCA Healthcare,University of Southern California,Health/Health Care Administration/Management,University of Notre Dame,,HCA Healthcare,,622110 Osteopathic hospitals,,62,,,Health Care and Social Assistance,,,,,,nan
220,"Washington,  of Columbia, United States","VP, Finance and Strategy at MotorTrend Group",Strategy and Finance Management Consultant at Independent Consulting,2005–2007,Finance,University of Notre Dame,MotorTrend Group,Independent Consulting,,"541511 Web (i.e., Internet) page design services, custom",,54,,,"Professional, Scientific, and Technical Services",38.895037,-77.036543,District of Columbia,,Washington,nan
221,"Leawood, Kansas, United States",Director of Parts Operations at Murphy-Hoffman Company (MHC Kenworth),Regional Sales Manager at PACCAR Parts,University of Notre Dame,"Business Administration and Management, General",University of Notre Dame,Murphy-Hoffman Company (MHC Kenworth),PACCAR Parts,,"336390 Wipers, windshield, automotive, truck, and bus, manufacturing",,31-33,,,Manufacturing,38.966673,-94.616901,Kansas,Johnson,,20091
222,"Des Plaines, Illinois, United States",Executive Vice President & Chief Credit Officer at Inland Bank and Trust,Executive Vice President and Chief Credit Officer at Standard Bank and Trust Co.,DePaul University,Finance,University of Notre Dame,Inland Bank and Trust,Standard Bank and Trust Co.,522110 State commercial banks,,52,,Finance and Insurance,80163.492,,42.041582,-87.887392,Illinois,Cook,,17031
223,"Houston, Texas, United States",Owner at Palmer Logistics,LT at U.S. Navy,1990–1994,Management,University of Notre Dame,Palmer Logistics,U.S. Navy,488510 Shipping agents (freight forwarding),,48-49,,Transportation and Warehousing,65503.789,,29.758938,-95.367697,Texas,Harris,Houston,48201
224,"Sioux Falls, South Dakota, United States",Owner/President at Blueprint Business Advisory,Senior Partner and Coach at B2B CFO Partners. LLC,University of Notre Dame,Accounting,University of Notre Dame,Blueprint Business Advisory,B2B CFO Partners. LLC,,,,,,,,43.546059,-96.731393,South Dakota,Minnehaha,Sioux Falls,46099
225, Chicago ,Director - Analytics Products at United Airlines,Commercial Analytics Senior Manager at United Airlines,University of Notre Dame,Bioengineering,University of Notre Dame,United Airlines,United Airlines,481111 Scheduled air passenger transportation,481111 Scheduled air passenger transportation,48-49,48-49,Transportation and Warehousing,65503.789,Transportation and Warehousing,41.875562,-87.624421,Illinois,Cook,Chicago,17031
226,"Albany, New York  ",Sr. Demand Generation Manager at Offensive Security,B2B Marketing Manager at Offensive Security,University of Notre Dame,Philosophy (with 10 Business Courses),University of Notre Dame,Offensive Security,Offensive Security,541612 Personnel management consulting services,541612 Personnel management consulting services,54,54,"Professional, Scientific, and Technical Services",77645.346,"Professional, Scientific, and Technical Services",42.651167,-73.754968,New York,Albany,Albany,36001
227,"Wilmette, Illinois, United States",IT Manager at Magnetar Capital LLC,Back Office Technology at Citadel Investment Group,Northwestern University,Information Technology,University of Notre Dame,Magnetar Capital LLC,Citadel Investment Group,523910 Viatical settlement companies,523910 Viatical settlement companies,52,52,Finance and Insurance,80163.492,Finance and Insurance,42.075732,-87.719377,Illinois,Cook,,17031
228, Chicago ,"Vice President, Corporate Development at Cancer Treatment Centers of America",Consultant at Boston Consulting Group (BCG),The University of Chicago Booth School of Business,Economics,University of Notre Dame,Cancer Treatment Centers of America,Boston Consulting Group (BCG),622310 Tuberculosis and other respiratory illness hospitals,"561210 Jails, privately operated",62,56,Health Care and Social Assistance,76373.049,Administrative and Support and Waste Management and Remediation Services,41.875562,-87.624421,Illinois,Cook,Chicago,17031
229,"Denver, Colorado, United States",Chief Financial Officer at Brownstein Hyatt Farber Schreck,Chief Financial Officer at Michael Best & Friedrich LLP,University of Notre Dame,Public Accounting,University of Notre Dame,Brownstein Hyatt Farber Schreck,Michael Best & Friedrich LLP,541110 Tax law attorneys' private practices,541110 Tax law attorneys' private practices,54,54,"Professional, Scientific, and Technical Services",77645.346,"Professional, Scientific, and Technical Services",39.739236,-104.984862,Colorado,,Denver,08031
230,San Francisco Bay ,Marketing Manager at Renowned Recruitment Group,Marketing and Development Specialist  at Home Care Assistance,University of Notre Dame,Marketing,University of Notre Dame,Renowned Recruitment Group,Home Care Assistance,,621610 Visiting nurse associations,,62,,,Health Care and Social Assistance,37.714029,-122.307794,California,San Mateo,,06081
231,"Romford, England, United Kingdom",Managing Director at Etag Fixings UK and Ireland at Etag Fixings UK & Ireland,General Manager at Etag Fixings UK & Ireland,Notre Dame Collegiate School,,University of Notre Dame,Etag Fixings UK & Ireland,Etag Fixings UK & Ireland,,,,,,,,51.576046,0.182265,England,,London,nan
232,"Melville, New York, United States","Executive Director, Financial Control Innovation & Operations at The Estée Lauder Companies Inc.","Regional Controller, EMEA at Estee Lauder Companies Europe",University of Notre Dame,Accounting,University of Notre Dame,The Estée Lauder Companies Inc.,Estee Lauder Companies Europe,"325620 Towelettes, premoistened, manufacturing",541611 Strategic planning consulting services,31-33,54,Manufacturing,69174.562,"Professional, Scientific, and Technical Services",40.783476,-73.407557,New York,Suffolk,,36103
233, Lyon ,Directeur général  at plus2sens,Investisseur at Time for the Planet,SCIENCES COM Nantes,Communication globale,University of Notre Dame,plus2sens,Time for the Planet,,,,,,,,45.757814,4.832011,Auvergne-Rhône-Alpes,Métropole de,Lyon,nan
234,"Courtenay, British Columbia, Canada",Director of Marketing at Waypoint Insurance,Director of Marketing & Communications / Enrolment  at Athol Murray College of Notre Dame,University of North Dakota,Organizational Leadership,University of Notre Dame,Waypoint Insurance,Athol Murray College of Notre Dame,524210 Life insurance agencies,,52,,Finance and Insurance,80163.492,,49.689406,-124.995496,British Columbia,Comox Valley Regional,Courtenay,nan
235, Chicago ,Head of Revenue at SEI Novus,Chief Growth Officer at Flamingo,2003–2005,Finance & Accounting,University of Notre Dame,SEI Novus,Flamingo,"523930 Investment advisory services, customized, fees paid by client","424480 Vegetables, fresh, merchant wholesalers",52,42,Finance and Insurance,80163.492,Wholesale Trade,41.875562,-87.624421,Illinois,Cook,Chicago,17031
236, Lille  ,Manager IT - unité BI & Big Data at Swiss Life France,Responsable Urbanisation & Data Intelligence at CAMAIEU INTERNATIONAL,INT Management,Management des SI,University of Notre Dame,Swiss Life France,CAMAIEU INTERNATIONAL,523120 Stock options brokerages,448150 Wig and hairpiece stores,52,44-45,Finance and Insurance,80163.492,Retail Trade,50.636565,3.063528,Hauts-de-France,Nord,Lille,nan
237,New York City  ,Director of FP&A- eCommerce & Marketing at The Vitamin Shoppe,Director of Real Estate at The Vitamin Shoppe,University of Notre Dame,"Business Administration, Finance",University of Notre Dame,The Vitamin Shoppe,The Vitamin Shoppe,"325411 Vitamins, uncompounded, manufacturing","325411 Vitamins, uncompounded, manufacturing",31-33,31-33,Manufacturing,69174.562,Manufacturing,40.712728,-74.006015,New York,,New York,36061
238, Chicago ,Marketing Director at Manifold,Senior Marketing Consultant at Digital Intent,University of Notre Dame,"Philosophy, Political Science",University of Notre Dame,Manifold,Digital Intent,"336390 Wipers, windshield, automotive, truck, and bus, manufacturing",,31-33,,Manufacturing,69174.562,,41.875562,-87.624421,Illinois,Cook,Chicago,17031
239,"Keswick, Virginia, United States",President at SJ Investments,CEO at Ledgex Systems,University of Notre Dame,Accounting,University of Notre Dame,SJ Investments,Ledgex Systems,441110 New car dealers,,44-45,,Retail Trade,56013.266,,38.022639,-78.359175,Virginia,Albemarle,,51003
240,"West Midlands, England, United Kingdom",Co-Founder & Trustee  at Ladies Fighting Breast Cancer,Owner at V.I.P. Health and Beauty Clinique,Notre Dame High School Cheetham Hill Manchester,,University of Notre Dame,Ladies Fighting Breast Cancer,V.I.P. Health and Beauty Clinique,,,,,,,,52.505003,-1.964396,England,West Midlands Combined,,nan
241,"Haldimand County, Ontario, Canada",Learning and Development Manager at Zensurance,Learning Experience Designer (LXD) at TVO,International Open Academy,Teaching English as a Second or Foreign Language/ESL Language Instructor,University of Notre Dame,Zensurance,TVO,,522298 Short-term inventory credit lending,,52,,,Finance and Insurance,42.945542,-79.836203,Ontario,Haldimand,,nan
242,"Fair Oaks, California, United States",Director of Manufacturing at Beckman Coulter Diagnostics,Senior Program Manager at Beckman Coulter Diagnostics,University of Notre Dame,Chemistry,University of Notre Dame,Beckman Coulter Diagnostics,Beckman Coulter Diagnostics,339112 Veterinarians' instruments and apparatus manufacturing,339112 Veterinarians' instruments and apparatus manufacturing,31-33,31-33,Manufacturing,69174.562,Manufacturing,38.642897,-121.246245,California,Sacramento,,06067
243,"Suffolk County, Massachusetts, United States",President at Boston College High School,"Head of School at St. Mary's Lynn, Co-ed Catholic college-prep school, Lynn, MA",Boston College School of Theology and Ministry,Pastoral Ministry and Spirituality,University of Notre Dame,Boston College High School,"St. Mary's Lynn, Co-ed Catholic college-prep school, Lynn, MA","611110 Seminaries, below university grade",,61,,Educational Services,67390.465,,42.354446,-70.978877,Massachusetts,Suffolk,,25025
244,"New York, New York, United States",Senior Vice President at Raines International,Vice President at Raines International Inc.,University of Notre Dame,Marketing,University of Notre Dame,Raines International,Raines International Inc.,541611 Strategic planning consulting services,541611 Strategic planning consulting services,54,54,"Professional, Scientific, and Technical Services",77645.346,"Professional, Scientific, and Technical Services",40.712728,-74.006015,New York,,New York,36061
245,"San Carlos, California, United States","President, Worldwide Sales at Zendesk","Territories Market Segment Leader, North America at Amazon Web Services",1984–1988,Computer Science,University of Notre Dame,Zendesk,Amazon Web Services,"511210 Utility software, computer, packaged",561499 Videoconferencing services,51,56,Information,73855.595,Administrative and Support and Waste Management and Remediation Services,37.504936,-122.261823,California,San Mateo,San Carlos,06081
246,Denver  ,,Chief Supply Chain Officer (CSCO) at Spreetail,Duke University & University of Notre Dame,Finance & Operations,University of Notre Dame,,Spreetail,,454110,,44-45,,,Retail Trade,39.739236,-104.984862,Colorado,,Denver,08031
247,"Atlanta, Georgia, United States","Vice President, Hospice at Advantage Home Health and Hospice","Hospice Divisional Sales Leader at AccentCare, Inc.",The University of Connecticut,,University of Notre Dame,Advantage Home Health and Hospice,"AccentCare, Inc.",621610 Visiting nurse associations,621610 Visiting nurse associations,62,62,Health Care and Social Assistance,76373.049,Health Care and Social Assistance,33.748992,-84.390264,Georgia,Fulton,Atlanta,13121
